{:groups=>[{:id=>0, :color=>"#7fad58", :price=>30, :size=>4, :max_distance=>295.0466685907314, :parkinglots=>[{:id=>3569, :name=>"俥亭萬華停車場", :lat=>25.0345462, :lng=>121.5002155, :price=>30, :color=>"#7fad58"}, {:id=>1012, :name=>"臺北市萬華區行政中心地下停車場", :lat=>25.0345302, :lng=>121.5000177, :price=>30, :color=>"#7fad58"}, {:id=>916, :name=>"萬華車站前平面停車場", :lat=>25.0337451, :lng=>121.5007504, :price=>30, :color=>"#7fad58"}, {:id=>69, :name=>"艋舺公園地下停車場", :lat=>25.0361254, :lng=>121.4994563, :price=>30, :color=>"#7fad58"}]}, {:id=>1, :color=>"#ffc000", :price=>60, :size=>3, :max_distance=>184.85188952691774, :parkinglots=>[{:id=>108, :name=>"天母西側停車場", :lat=>25.1187174, :lng=>121.529732, :price=>60, :color=>"#ffc000"}, {:id=>792, :name=>"天母東側停車場", :lat=>25.1185206, :lng=>121.5308518, :price=>60, :color=>"#ffc000"}, {:id=>825, :name=>"博客停車場天母站", :lat=>25.1188308, :lng=>121.529048, :price=>50, :color=>"#ffd863"}]}, {:id=>2, :color=>"#ffc000", :price=>60, :size=>3, :max_distance=>376.92029516093703, :parkinglots=>[{:id=>2053, :name=>"TIMES承德酒泉", :lat=>25.0711166, :lng=>121.5194181, :price=>60, :color=>"#ffc000"}, {:id=>3899, :name=>"TIMES承德酒泉第2", :lat=>25.06974, :lng=>121.5186674, :price=>60, :color=>"#ffc000"}, {:id=>3519, :name=>"達客瑪停車場", :lat=>25.0731139, :lng=>121.5190286, :price=>60, :color=>"#ffc000"}]}, {:id=>3, :color=>"#7fad58", :price=>30, :size=>4, :max_distance=>274.57306850979734, :parkinglots=>[{:id=>85, :name=>"陽明山花鐘停車場", :lat=>25.1568427, :lng=>121.5396836, :price=>30, :color=>"#7fad58"}, {:id=>1817, :name=>"嘟嘟房陽明山花鐘站", :lat=>25.1569348, :lng=>121.5396155, :price=>30, :color=>"#7fad58"}, {:id=>16, :name=>"陽明山立體停車場", :lat=>25.1545136, :lng=>121.5390797, :price=>30, :color=>"#7fad58"}, {:id=>1816, :name=>"嘟嘟房陽明山立體站", :lat=>25.1545467, :lng=>121.5390953, :price=>30, :color=>"#7fad58"}]}, {:id=>4, :color=>"#7fad58", :price=>30, :size=>5, :max_distance=>320.38372941343476, :parkinglots=>[{:id=>4133, :name=>"福慧網萬芳加盟站", :lat=>24.9986291, :lng=>121.5563371, :price=>30, :color=>"#7fad58"}, {:id=>3686, :name=>"應安萬芳場", :lat=>24.9983701, :lng=>121.557524, :price=>30, :color=>"#7fad58"}, {:id=>1200, :name=>"宏和停車場", :lat=>24.9980927, :lng=>121.5569075, :price=>40, :color=>"#aede85"}, {:id=>1195, :name=>"萬芳醫院附設停車場", :lat=>24.9993621, :lng=>121.5575117, :price=>40, :color=>"#aede85"}, {:id=>1088, :name=>"台北市文山運動中心停車場", :lat=>24.997001, :lng=>121.55896, :price=>30, :color=>"#7fad58"}]}, {:id=>5, :color=>"#7fad58", :price=>30, :size=>3, :max_distance=>303.69130836980617, :parkinglots=>[{:id=>150, :name=>"湖興立體停車場", :lat=>25.0675706, :lng=>121.5903358, :price=>30, :color=>"#7fad58"}, {:id=>868, :name=>"石潭平面停車場", :lat=>25.0686454, :lng=>121.5919505, :price=>30, :color=>"#7fad58"}, {:id=>3434, :name=>"台北內湖民權停車場", :lat=>25.0681135, :lng=>121.5932908, :price=>20, :color=>"#7fad58"}]}, {:id=>6, :color=>"#aede85", :price=>40, :size=>8, :max_distance=>239.27842820296576, :parkinglots=>[{:id=>1512, :name=>"東豐街停車場", :lat=>25.0356092, :lng=>121.5442878, :price=>50, :color=>"#ffd863"}, {:id=>810, :name=>"俥亭道慈停車場", :lat=>25.0347194, :lng=>121.5443143, :price=>40, :color=>"#aede85"}, {:id=>1538, :name=>"市農會A區收費停車場", :lat=>25.0361053, :lng=>121.5429542, :price=>40, :color=>"#aede85"}, {:id=>1165, :name=>"市農會B區收費停車場", :lat=>25.0361053, :lng=>121.5429542, :price=>40, :color=>"#aede85"}, {:id=>1539, :name=>"市農會C區收費停車場", :lat=>25.036103, :lng=>121.543009, :price=>40, :color=>"#aede85"}, {:id=>2076, :name=>"TIMES信義復興", :lat=>25.0355136, :lng=>121.5429941, :price=>40, :color=>"#aede85"}, {:id=>27, :name=>"附中公園地下停車場", :lat=>25.0361202, :lng=>121.5425114, :price=>50, :color=>"#ffd863"}, {:id=>959, :name=>"安祥公園旁平面停車場", :lat=>25.034344, :lng=>121.5428504, :price=>30, :color=>"#7fad58"}]}, {:id=>7, :color=>"#df4e76", :price=>120, :size=>3, :max_distance=>517.2803357875995, :parkinglots=>[{:id=>1511, :name=>"崇光百貨停車場", :lat=>25.041922, :lng=>121.5452556, :price=>120, :color=>"#df4e76"}, {:id=>765, :name=>"太平洋崇光百貨股份有限公司復興店停車場", :lat=>25.0406643, :lng=>121.5430487, :price=>120, :color=>"#df4e76"}, {:id=>1513, :name=>"太平洋崇光百貨(股)公司敦化分公司停車場", :lat=>25.0397652, :lng=>121.5480865, :price=>120, :color=>"#df4e76"}]}, {:id=>8, :color=>"#aede85", :price=>40, :size=>10, :max_distance=>704.8101303174236, :parkinglots=>[{:id=>748, :name=>"臨沂停車場", :lat=>25.03578, :lng=>121.5284215, :price=>40, :color=>"#aede85"}, {:id=>1979, :name=>"便利停車場臨沂三站", :lat=>25.0368038, :lng=>121.5288076, :price=>40, :color=>"#aede85"}, {:id=>3935, :name=>"嘟嘟房仁愛新生2站", :lat=>25.036727, :lng=>121.527709, :price=>50, :color=>"#ffd863"}, {:id=>1953, :name=>"應安黎明場", :lat=>25.0342465, :lng=>121.5306299, :price=>40, :color=>"#aede85"}, {:id=>1657, :name=>"台灣聯通仁愛場", :lat=>25.0383706, :lng=>121.5266488, :price=>30, :color=>"#7fad58"}, {:id=>2045, :name=>"TIMES仁愛路二段", :lat=>25.0381874, :lng=>121.5267455, :price=>40, :color=>"#aede85"}, {:id=>3905, :name=>"TIMES杭州南路", :lat=>25.0377504, :lng=>121.5256562, :price=>40, :color=>"#aede85"}, {:id=>2050, :name=>"TIMES杭州南路2", :lat=>25.0395056, :lng=>121.5267248, :price=>30, :color=>"#7fad58"}, {:id=>3491, :name=>"中華電信仁愛停車場", :lat=>25.0367657, :lng=>121.5247559, :price=>40, :color=>"#aede85"}, {:id=>1948, :name=>"應安杭南二場", :lat=>25.0361297, :lng=>121.5248965, :price=>30, :color=>"#7fad58"}]}, {:id=>9, :color=>"#aede85", :price=>40, :size=>17, :max_distance=>622.946621405273, :parkinglots=>[{:id=>1398, :name=>"俥亭保德信停車場", :lat=>25.051969, :lng=>121.562059, :price=>50, :color=>"#ffd863"}, {:id=>1696, :name=>"台灣聯通大千場", :lat=>25.0509461, :lng=>121.5625721, :price=>40, :color=>"#aede85"}, {:id=>1412, :name=>"台灣聯通八德場", :lat=>25.0499877, :lng=>121.5643058, :price=>30, :color=>"#7fad58"}, {:id=>1387, :name=>"長揚停車場東興站", :lat=>25.0498626, :lng=>121.5645916, :price=>50, :color=>"#ffd863"}, {:id=>1267, :name=>"宏達經營管理顧問有限公司南京停車場", :lat=>25.0508584, :lng=>121.5641835, :price=>30, :color=>"#7fad58"}, {:id=>4045, :name=>"俥亭南京東路站停車場", :lat=>25.050928, :lng=>121.5641507, :price=>40, :color=>"#aede85"}, {:id=>78, :name=>"偶戲博物館地下停車場", :lat=>25.0469021, :lng=>121.5618611, :price=>40, :color=>"#aede85"}, {:id=>1382, :name=>"便利停車場八德站", :lat=>25.048043, :lng=>121.561165, :price=>40, :color=>"#aede85"}, {:id=>118, :name=>"京華城停車場", :lat=>25.0482124, :lng=>121.5628195, :price=>40, :color=>"#aede85"}, {:id=>1780, :name=>"嘟嘟房京華城站", :lat=>25.0476073, :lng=>121.5629553, :price=>50, :color=>"#ffd863"}, {:id=>1414, :name=>"台灣聯通監理站停車場", :lat=>25.0483099, :lng=>121.5589158, :price=>40, :color=>"#aede85"}, {:id=>3960, :name=>"台灣聯通監理站場", :lat=>25.0483205, :lng=>121.5590044, :price=>40, :color=>"#aede85"}, {:id=>44, :name=>"光復北路立體停車場", :lat=>25.049219, :lng=>121.5584486, :price=>30, :color=>"#7fad58"}, {:id=>81, :name=>"中崙高中地下停車場", :lat=>25.0502171, :lng=>121.5612433, :price=>40, :color=>"#aede85"}, {:id=>811, :name=>"吉祥平面停車場", :lat=>25.0502069, :lng=>121.5611447, :price=>30, :color=>"#7fad58"}, {:id=>1590, :name=>"叭叭房大台北瓦斯", :lat=>25.0499717, :lng=>121.5601622, :price=>30, :color=>"#7fad58"}, {:id=>1415, :name=>"大台北瓦斯大樓地下停車場", :lat=>25.0500015, :lng=>121.5602423, :price=>30, :color=>"#7fad58"}]}, {:id=>10, :color=>"#ffd863", :price=>50, :size=>9, :max_distance=>657.2064830899089, :parkinglots=>[{:id=>1591, :name=>"叭叭房曼哈頓", :lat=>25.0325236, :lng=>121.5606026, :price=>40, :color=>"#aede85"}, {:id=>1220, :name=>"震旦國際大樓附設停車場", :lat=>25.0325254, :lng=>121.5605048, :price=>50, :color=>"#ffd863"}, {:id=>1666, :name=>"台灣聯通基隆路場", :lat=>25.0327961, :lng=>121.5593677, :price=>50, :color=>"#ffd863"}, {:id=>1296, :name=>"博客停車場信義站", :lat=>25.0333208, :lng=>121.5577533, :price=>40, :color=>"#aede85"}, {:id=>1298, :name=>"TIMES光復南路", :lat=>25.0336526, :lng=>121.5582217, :price=>50, :color=>"#ffd863"}, {:id=>1545, :name=>"莎軒停車場", :lat=>25.030644, :lng=>121.5561745, :price=>50, :color=>"#ffd863"}, {:id=>1542, :name=>"便利停車場大安地政事務所站", :lat=>25.033954, :lng=>121.5563452, :price=>50, :color=>"#ffd863"}, {:id=>1997, :name=>"便利停車場地政站", :lat=>25.0340153, :lng=>121.5564309, :price=>60, :color=>"#ffc000"}, {:id=>843, :name=>"應安延吉場", :lat=>25.0354334, :lng=>121.5549247, :price=>50, :color=>"#ffd863"}]}, {:id=>11, :color=>"#aede85", :price=>40, :size=>5, :max_distance=>347.50449678050046, :parkinglots=>[{:id=>120, :name=>"台灣大學公館停車場", :lat=>25.0123473, :lng=>121.5384571, :price=>40, :color=>"#aede85"}, {:id=>771, :name=>"國立臺灣大學臨時停車場", :lat=>25.0122758, :lng=>121.5367697, :price=>40, :color=>"#aede85"}, {:id=>3592, :name=>"台北文山麗園停車場", :lat=>25.0102182, :lng=>121.5366293, :price=>40, :color=>"#aede85"}, {:id=>98, :name=>"公館停車場", :lat=>25.0111184, :lng=>121.5356894, :price=>50, :color=>"#ffd863"}, {:id=>845, :name=>"順康尊賢停車場", :lat=>25.0132798, :lng=>121.5359372, :price=>30, :color=>"#7fad58"}]}, {:id=>12, :color=>"#7fad58", :price=>30, :size=>5, :max_distance=>486.0536831007622, :parkinglots=>[{:id=>822, :name=>"忠誠路(二)平面停車場", :lat=>25.1075568, :lng=>121.529781, :price=>30, :color=>"#7fad58"}, {:id=>828, :name=>"忠誠路(一)平面停車場", :lat=>25.1075568, :lng=>121.529781, :price=>30, :color=>"#7fad58"}, {:id=>1940, :name=>"應安士林停車場", :lat=>25.1112799, :lng=>121.5323104, :price=>30, :color=>"#7fad58"}, {:id=>126, :name=>"蘭雅公園地下停車場", :lat=>25.1097249, :lng=>121.5294015, :price=>40, :color=>"#aede85"}, {:id=>3554, :name=>"臺北市公有士東市場地下室停車場", :lat=>25.1114776, :lng=>121.5297238, :price=>40, :color=>"#aede85"}]}, {:id=>13, :color=>"#7fad58", :price=>30, :size=>6, :max_distance=>455.5020055685644, :parkinglots=>[{:id=>45, :name=>"洛陽綜合立體停車場", :lat=>25.0476284, :lng=>121.504913, :price=>20, :color=>"#7fad58"}, {:id=>1122, :name=>"臺北市萬華運動中心停車場", :lat=>25.0472667, :lng=>121.5060404, :price=>30, :color=>"#7fad58"}, {:id=>3622, :name=>"新光育樂股份有限公司獅子林停車場", :lat=>25.045226, :lng=>121.5064979, :price=>40, :color=>"#aede85"}, {:id=>3980, :name=>"便利停車場新光站", :lat=>25.0457808, :lng=>121.5063694, :price=>40, :color=>"#aede85"}, {:id=>1994, :name=>"便利停車場昆明站", :lat=>25.0467127, :lng=>121.505071, :price=>40, :color=>"#aede85"}, {:id=>987, :name=>"今日育樂大樓停車場", :lat=>25.0435322, :lng=>121.5049607, :price=>30, :color=>"#7fad58"}]}, {:id=>14, :color=>"#aede85", :price=>40, :size=>3, :max_distance=>201.34410134053982, :parkinglots=>[{:id=>58, :name=>"百齡高中地下停車場", :lat=>25.08572, :lng=>121.5233641, :price=>50, :color=>"#ffd863"}, {:id=>3628, :name=>"峰群停車場", :lat=>25.0847919, :lng=>121.5228907, :price=>40, :color=>"#aede85"}, {:id=>57, :name=>"前港公園地下停車場", :lat=>25.0859955, :lng=>121.521397, :price=>30, :color=>"#7fad58"}]}, {:id=>15, :color=>"#ffc000", :price=>60, :size=>3, :max_distance=>641.7423383078154, :parkinglots=>[{:id=>1121, :name=>"禾典林森站", :lat=>25.0637373, :lng=>121.5237747, :price=>60, :color=>"#ffc000"}, {:id=>1764, :name=>"嘟嘟房天祥站", :lat=>25.0634762, :lng=>121.5207637, :price=>60, :color=>"#ffc000"}, {:id=>113, :name=>"台北馬偕醫院地下停車場", :lat=>25.0582668, :lng=>121.5217446, :price=>60, :color=>"#ffc000"}]}, {:id=>16, :color=>"#aede85", :price=>40, :size=>13, :max_distance=>661.3430181073261, :parkinglots=>[{:id=>3473, :name=>"德惠停車場", :lat=>25.0667239, :lng=>121.52341, :price=>40, :color=>"#aede85"}, {:id=>2220, :name=>"禾典中山站", :lat=>25.066919, :lng=>121.5243192, :price=>50, :color=>"#ffd863"}, {:id=>3553, :name=>"萬萬電腦收費停車場", :lat=>25.065436, :lng=>121.5230189, :price=>40, :color=>"#aede85"}, {:id=>1018, :name=>"宏達經營管理顧問有限公司農安停車場", :lat=>25.0649515, :lng=>121.5232733, :price=>40, :color=>"#aede85"}, {:id=>1132, :name=>"中山碩尚停車場", :lat=>25.0641368, :lng=>121.5239766, :price=>40, :color=>"#aede85"}, {:id=>866, :name=>"雙城停車場", :lat=>25.0654195, :lng=>121.5238933, :price=>50, :color=>"#ffd863"}, {:id=>1776, :name=>"嘟嘟房晴光站", :lat=>25.0650826, :lng=>121.5242719, :price=>50, :color=>"#ffd863"}, {:id=>1961, :name=>"應安農安場", :lat=>25.0646455, :lng=>121.5256649, :price=>40, :color=>"#aede85"}, {:id=>1634, :name=>"台灣聯通晴光商圈場", :lat=>25.063702, :lng=>121.525523, :price=>40, :color=>"#aede85"}, {:id=>1646, :name=>"台灣聯通新興場", :lat=>25.0624286, :lng=>121.5256212, :price=>40, :color=>"#aede85"}, {:id=>1001, :name=>"大發停車場", :lat=>25.063305, :lng=>121.5250278, :price=>50, :color=>"#ffd863"}, {:id=>893, :name=>"中山北路3段55巷停車場", :lat=>25.068002, :lng=>121.523329, :price=>40, :color=>"#aede85"}, {:id=>3614, :name=>"佛原德惠停車場", :lat=>25.0679673, :lng=>121.5233185, :price=>30, :color=>"#7fad58"}]}, {:id=>17, :color=>"#aede85", :price=>40, :size=>3, :max_distance=>256.32323189665163, :parkinglots=>[{:id=>1198, :name=>"俥亭景新停車場", :lat=>24.9901725, :lng=>121.542258, :price=>40, :color=>"#aede85"}, {:id=>976, :name=>"景文平面停車場", :lat=>24.9904305, :lng=>121.541104, :price=>30, :color=>"#7fad58"}, {:id=>1215, :name=>"磐石景美站停車場", :lat=>24.9924742, :lng=>121.5421185, :price=>50, :color=>"#ffd863"}]}, {:id=>18, :color=>"#ed7760", :price=>80, :size=>3, :max_distance=>802.7619394580879, :parkinglots=>[{:id=>1416, :name=>"鴻構大樓計時收費停車場", :lat=>25.0584442, :lng=>121.5448662, :price=>80, :color=>"#ed7760"}, {:id=>3938, :name=>"嘟嘟房敦北頂好站", :lat=>25.0571176, :lng=>121.5509823, :price=>80, :color=>"#ed7760"}, {:id=>1264, :name=>"臺北國際航空站大客車收費停車場", :lat=>25.0632994, :lng=>121.5507644, :price=>80, :color=>"#ed7760"}]}, {:id=>19, :color=>"#7fad58", :price=>30, :size=>8, :max_distance=>831.0982132581624, :parkinglots=>[{:id=>143, :name=>"捷運昆陽站(二區)", :lat=>25.0493101, :lng=>121.5884161, :price=>30, :color=>"#7fad58"}, {:id=>1584, :name=>"捷運昆陽站(一區)", :lat=>25.0493101, :lng=>121.5884161, :price=>30, :color=>"#7fad58"}, {:id=>144, :name=>"捷運昆陽站(三區)", :lat=>25.0490226, :lng=>121.587282, :price=>30, :color=>"#7fad58"}, {:id=>1932, :name=>"應安昆陽場", :lat=>25.0487462, :lng=>121.5858713, :price=>20, :color=>"#7fad58"}, {:id=>1192, :name=>"應安新昆陽場", :lat=>25.0487837, :lng=>121.5859615, :price=>40, :color=>"#aede85"}, {:id=>49, :name=>"五分埔公園地下停車場", :lat=>25.0469263, :lng=>121.5805968, :price=>30, :color=>"#7fad58"}, {:id=>747, :name=>"聯永南港新天地站", :lat=>25.0469276, :lng=>121.5819196, :price=>30, :color=>"#7fad58"}, {:id=>132, :name=>"南港運動中心停車場", :lat=>25.0485301, :lng=>121.5814919, :price=>30, :color=>"#7fad58"}]}, {:id=>20, :color=>"#7fad58", :price=>30, :size=>13, :max_distance=>764.3390287381517, :parkinglots=>[{:id=>1637, :name=>"台灣聯通安東場", :lat=>25.0463222, :lng=>121.5418469, :price=>40, :color=>"#aede85"}, {:id=>1456, :name=>"禾典市民站", :lat=>25.0441151, :lng=>121.5431781, :price=>40, :color=>"#aede85"}, {:id=>1040, :name=>"億光大樓停車場", :lat=>25.0428599, :lng=>121.536972, :price=>40, :color=>"#aede85"}, {:id=>26, :name=>"進安公園地下停車場", :lat=>25.0462352, :lng=>121.5376111, :price=>20, :color=>"#7fad58"}, {:id=>1640, :name=>"台灣聯通建國場", :lat=>25.0469138, :lng=>121.5369464, :price=>20, :color=>"#7fad58"}, {:id=>3423, :name=>"建國北路高架橋下O區", :lat=>25.0466357, :lng=>121.5366896, :price=>30, :color=>"#7fad58"}, {:id=>1445, :name=>"長揚停車場八德站", :lat=>25.0464825, :lng=>121.5369395, :price=>40, :color=>"#aede85"}, {:id=>1642, :name=>"台灣聯通北科大場", :lat=>25.0449309, :lng=>121.5356445, :price=>30, :color=>"#7fad58"}, {:id=>15, :name=>"市民大道(建復段)", :lat=>25.044719, :lng=>121.5406027, :price=>30, :color=>"#7fad58"}, {:id=>3447, :name=>"嘟嘟房中崙2站", :lat=>25.0453162, :lng=>121.5403132, :price=>30, :color=>"#7fad58"}, {:id=>3446, :name=>"嘟嘟房中崙1站", :lat=>25.0456139, :lng=>121.5393276, :price=>30, :color=>"#7fad58"}, {:id=>3603, :name=>"福慧網建國加盟站", :lat=>25.0473136, :lng=>121.5394333, :price=>30, :color=>"#7fad58"}, {:id=>3616, :name=>"台北市中山區八德路停車場", :lat=>25.0466509, :lng=>121.539211, :price=>30, :color=>"#7fad58"}]}, {:id=>21, :color=>"#aede85", :price=>40, :size=>13, :max_distance=>570.2553842044593, :parkinglots=>[{:id=>1312, :name=>"長揚停車場加美站", :lat=>25.0738117, :lng=>121.5764482, :price=>30, :color=>"#7fad58"}, {:id=>1594, :name=>"叭叭房亞太C區平面", :lat=>25.0730469, :lng=>121.5769505, :price=>30, :color=>"#7fad58"}, {:id=>1359, :name=>"嘟嘟房內湖瑞湖", :lat=>25.0747103, :lng=>121.5761195, :price=>30, :color=>"#7fad58"}, {:id=>2014, :name=>"便利停車場大眾站", :lat=>25.0734052, :lng=>121.5747498, :price=>30, :color=>"#7fad58"}, {:id=>1362, :name=>"龍昌內湖一站停車場", :lat=>25.0738176, :lng=>121.5744676, :price=>30, :color=>"#7fad58"}, {:id=>1033, :name=>"天成車業服務股份有限公司瑞二停車場", :lat=>25.0712332, :lng=>121.576161, :price=>30, :color=>"#7fad58"}, {:id=>1334, :name=>"內湖二停車場", :lat=>25.0717684, :lng=>121.5750011, :price=>30, :color=>"#7fad58"}, {:id=>1335, :name=>"內湖一停車場", :lat=>25.0718829, :lng=>121.5757334, :price=>30, :color=>"#7fad58"}, {:id=>867, :name=>"內湖江南街停車場", :lat=>25.0718829, :lng=>121.5757334, :price=>60, :color=>"#ffc000"}, {:id=>1240, :name=>"台新銀行內湖大樓停車場", :lat=>25.0734496, :lng=>121.5741336, :price=>50, :color=>"#ffd863"}, {:id=>1149, :name=>"瑞光地下停車場", :lat=>25.0751746, :lng=>121.5753053, :price=>50, :color=>"#ffd863"}, {:id=>1354, :name=>"聯永物業股份有限公司內湖七站", :lat=>25.0755691, :lng=>121.5732212, :price=>50, :color=>"#ffd863"}, {:id=>1936, :name=>"應安瑞光場", :lat=>25.075299, :lng=>121.5727101, :price=>40, :color=>"#aede85"}]}, {:id=>22, :color=>"#ffc000", :price=>60, :size=>24, :max_distance=>1181.857538124997, :parkinglots=>[{:id=>1111, :name=>"長揚停車場敦南站", :lat=>25.0310882, :lng=>121.5501493, :price=>50, :color=>"#ffd863"}, {:id=>1790, :name=>"嘟嘟房敦南2站", :lat=>25.0315046, :lng=>121.5496817, :price=>60, :color=>"#ffc000"}, {:id=>3932, :name=>"嘟嘟房敦南3站", :lat=>25.0309533, :lng=>121.5509471, :price=>60, :color=>"#ffc000"}, {:id=>1438, :name=>"博客停車場文昌站", :lat=>25.0327284, :lng=>121.5501429, :price=>60, :color=>"#ffc000"}, {:id=>1686, :name=>"台灣聯通安和場", :lat=>25.0293498, :lng=>121.5506954, :price=>60, :color=>"#ffc000"}, {:id=>846, :name=>"台北慕軒停車場", :lat=>25.0341927, :lng=>121.5493722, :price=>70, :color=>"#faa695"}, {:id=>3900, :name=>"TIMES敦南信義停車場", :lat=>25.0323859, :lng=>121.5490055, :price=>70, :color=>"#faa695"}, {:id=>1146, :name=>"好停停車場", :lat=>25.0334409, :lng=>121.5462321, :price=>60, :color=>"#ffc000"}, {:id=>1449, :name=>"椰林停車場", :lat=>25.0351279, :lng=>121.5457756, :price=>60, :color=>"#ffc000"}, {:id=>1439, :name=>"長揚停車場仁愛站", :lat=>25.0367771, :lng=>121.5448978, :price=>60, :color=>"#ffc000"}, {:id=>1518, :name=>"敦安停車場", :lat=>25.0356258, :lng=>121.5496584, :price=>60, :color=>"#ffc000"}, {:id=>1517, :name=>"月娥停車場", :lat=>25.0354925, :lng=>121.5493115, :price=>60, :color=>"#ffc000"}, {:id=>1526, :name=>"榕樹下停車場", :lat=>25.0350119, :lng=>121.5490305, :price=>60, :color=>"#ffc000"}, {:id=>1464, :name=>"財團法人臺北市私立復興實驗高級中學附設地下停車場", :lat=>25.0397573, :lng=>121.5483146, :price=>60, :color=>"#ffc000"}, {:id=>1682, :name=>"台灣聯通福安場", :lat=>25.0375947, :lng=>121.5526064, :price=>60, :color=>"#ffc000"}, {:id=>1476, :name=>"北歐停車場", :lat=>25.0371174, :lng=>121.5521748, :price=>60, :color=>"#ffc000"}, {:id=>1448, :name=>"國泰綜合醫院本館停車場", :lat=>25.036642, :lng=>121.5531694, :price=>60, :color=>"#ffc000"}, {:id=>1447, :name=>"國泰綜合醫院分館停車場", :lat=>25.036234, :lng=>121.5545523, :price=>60, :color=>"#ffc000"}, {:id=>1431, :name=>"TIMES敦化南路", :lat=>25.0325017, :lng=>121.5480384, :price=>50, :color=>"#ffd863"}, {:id=>1426, :name=>"好庭車大安停車場", :lat=>25.0324073, :lng=>121.5470386, :price=>50, :color=>"#ffd863"}, {:id=>2221, :name=>"禾典住安站", :lat=>25.0328241, :lng=>121.5459959, :price=>50, :color=>"#ffd863"}, {:id=>3575, :name=>"台北大安中信停車場", :lat=>25.0334221, :lng=>121.5469086, :price=>40, :color=>"#aede85"}, {:id=>3695, :name=>"TIMES信義四維停車場", :lat=>25.0334134, :lng=>121.547381, :price=>50, :color=>"#ffd863"}, {:id=>1922, :name=>"應安敦南場", :lat=>25.0309895, :lng=>121.5481523, :price=>50, :color=>"#ffd863"}]}, {:id=>23, :color=>"#ffd863", :price=>50, :size=>16, :max_distance=>944.871045119043, :parkinglots=>[{:id=>1474, :name=>"師大路停車場", :lat=>25.0225152, :lng=>121.5290311, :price=>50, :color=>"#ffd863"}, {:id=>1437, :name=>"TIMES泰順街", :lat=>25.0220717, :lng=>121.5308308, :price=>50, :color=>"#ffd863"}, {:id=>1689, :name=>"台灣聯通古亭場", :lat=>25.023252, :lng=>121.525408, :price=>50, :color=>"#ffd863"}, {:id=>752, :name=>"禾典師大站", :lat=>25.0236354, :lng=>121.53013, :price=>60, :color=>"#ffc000"}, {:id=>1118, :name=>"TIMES浦城街", :lat=>25.024766, :lng=>121.5279617, :price=>60, :color=>"#ffc000"}, {:id=>782, :name=>"日發浦城街停車場", :lat=>25.0226877, :lng=>121.5268723, :price=>70, :color=>"#faa695"}, {:id=>779, :name=>"日發師大路停車場", :lat=>25.0226737, :lng=>121.5270673, :price=>60, :color=>"#ffc000"}, {:id=>3510, :name=>"國立台灣師範大學運動場地下停車場", :lat=>25.0267849, :lng=>121.5252749, :price=>50, :color=>"#ffd863"}, {:id=>3931, :name=>"嘟嘟房師大2站", :lat=>25.0274244, :lng=>121.5258659, :price=>50, :color=>"#ffd863"}, {:id=>1433, :name=>"禾典羅斯福站", :lat=>25.0269163, :lng=>121.5236873, :price=>60, :color=>"#ffc000"}, {:id=>1599, :name=>"叭叭房和平一", :lat=>25.027041, :lng=>121.524347, :price=>60, :color=>"#ffc000"}, {:id=>1503, :name=>"國立台灣師範大學圖書館校區地下停車場", :lat=>25.0265629, :lng=>121.5295416, :price=>50, :color=>"#ffd863"}, {:id=>1128, :name=>"TIMES泰順街2", :lat=>25.0250498, :lng=>121.5314425, :price=>50, :color=>"#ffd863"}, {:id=>51, :name=>"金華公園地下停車場", :lat=>25.0295129, :lng=>121.5317485, :price=>50, :color=>"#ffd863"}, {:id=>1135, :name=>"青田停車場", :lat=>25.0281043, :lng=>121.5319679, :price=>50, :color=>"#ffd863"}, {:id=>1081, :name=>"永康街停車場", :lat=>25.029631, :lng=>121.529499, :price=>50, :color=>"#ffd863"}]}, {:id=>24, :color=>"#aede85", :price=>40, :size=>9, :max_distance=>1042.3723807446945, :parkinglots=>[{:id=>786, :name=>"南華高中收費停車場", :lat=>25.0158918, :lng=>121.5310739, :price=>40, :color=>"#aede85"}, {:id=>1661, :name=>"嘟嘟房台大水源站", :lat=>25.0138832, :lng=>121.5297963, :price=>40, :color=>"#aede85"}, {:id=>1441, :name=>"驛林交通股份有限公司基泰台大站", :lat=>25.0173016, :lng=>121.5318004, :price=>50, :color=>"#ffd863"}, {:id=>1075, :name=>"TIMES台大羅斯福路", :lat=>25.0171308, :lng=>121.5327302, :price=>50, :color=>"#ffd863"}, {:id=>127, :name=>"台灣大學綜合體育館地下停車場", :lat=>25.0212125, :lng=>121.534126, :price=>40, :color=>"#aede85"}, {:id=>1508, :name=>"公務人力發展中心福華國際文教會館停車場", :lat=>25.0226522, :lng=>121.5334533, :price=>40, :color=>"#aede85"}, {:id=>3901, :name=>"TIMES溫州街2停車場", :lat=>25.0210999, :lng=>121.5330535, :price=>50, :color=>"#ffd863"}, {:id=>1428, :name=>"溫州停車場", :lat=>25.0210112, :lng=>121.5330471, :price=>50, :color=>"#ffd863"}, {:id=>119, :name=>"台灣大學新生南路地下停車場", :lat=>25.0190609, :lng=>121.5339524, :price=>40, :color=>"#aede85"}]}, {:id=>25, :color=>"#aede85", :price=>40, :size=>6, :max_distance=>548.5005739500664, :parkinglots=>[{:id=>1410, :name=>"臺北體育館地下停車場", :lat=>25.0516109, :lng=>121.5516618, :price=>40, :color=>"#aede85"}, {:id=>1116, :name=>"NaviPark小巨蛋場", :lat=>25.0521256, :lng=>121.5499156, :price=>40, :color=>"#aede85"}, {:id=>1095, :name=>"東泰停車場", :lat=>25.0547362, :lng=>121.5513209, :price=>40, :color=>"#aede85"}, {:id=>1273, :name=>"便利停車場全錄站", :lat=>25.0539054, :lng=>121.5477615, :price=>40, :color=>"#aede85"}, {:id=>1781, :name=>"嘟嘟房長春站", :lat=>25.0544887, :lng=>121.5472394, :price=>40, :color=>"#aede85"}, {:id=>1377, :name=>"敦北停車場", :lat=>25.0523561, :lng=>121.5504122, :price=>20, :color=>"#7fad58"}]}, {:id=>26, :color=>"#faa695", :price=>70, :size=>12, :max_distance=>993.1967288642101, :parkinglots=>[{:id=>1093, :name=>"TIMES金華街", :lat=>25.0289076, :lng=>121.5305687, :price=>70, :color=>"#faa695"}, {:id=>1432, :name=>"TIMES永康街", :lat=>25.0301545, :lng=>121.5296163, :price=>70, :color=>"#faa695"}, {:id=>1143, :name=>"TIMES和平東路", :lat=>25.0261985, :lng=>121.5327605, :price=>70, :color=>"#faa695"}, {:id=>3930, :name=>"嘟嘟房信義3站", :lat=>25.0340097, :lng=>121.5311341, :price=>60, :color=>"#ffc000"}, {:id=>2051, :name=>"TIMES信義永康", :lat=>25.0337477, :lng=>121.5307269, :price=>60, :color=>"#ffc000"}, {:id=>1598, :name=>"叭叭房信義", :lat=>25.0336408, :lng=>121.5309719, :price=>80, :color=>"#ed7760"}, {:id=>1952, :name=>"應安臨沂二場", :lat=>25.034668, :lng=>121.5296294, :price=>70, :color=>"#faa695"}, {:id=>1532, :name=>"永康站停車場", :lat=>25.0326611, :lng=>121.5300888, :price=>60, :color=>"#ffc000"}, {:id=>1787, :name=>"嘟嘟房永康3站", :lat=>25.0326611, :lng=>121.5300888, :price=>80, :color=>"#ed7760"}, {:id=>1786, :name=>"嘟嘟房永康2站", :lat=>25.0316584, :lng=>121.5309309, :price=>60, :color=>"#ffc000"}, {:id=>1505, :name=>"金山停車場", :lat=>25.032953, :lng=>121.5276533, :price=>60, :color=>"#ffc000"}, {:id=>1425, :name=>"TIMES金山南路", :lat=>25.0328192, :lng=>121.5283674, :price=>70, :color=>"#faa695"}]}, {:id=>27, :color=>"#ffd863", :price=>50, :size=>4, :max_distance=>361.6848480214714, :parkinglots=>[{:id=>965, :name=>"松山國小地下停車場", :lat=>25.0501367, :lng=>121.5785775, :price=>40, :color=>"#aede85"}, {:id=>1013, :name=>"TIMES松山車站前", :lat=>25.0501586, :lng=>121.578684, :price=>50, :color=>"#ffd863"}, {:id=>111, :name=>"松山車站地下停車場", :lat=>25.0481219, :lng=>121.578608, :price=>40, :color=>"#aede85"}, {:id=>1180, :name=>"鼎晟停車場(八德場)", :lat=>25.050778, :lng=>121.5806805, :price=>60, :color=>"#ffc000"}]}, {:id=>28, :color=>"#7fad58", :price=>30, :size=>8, :max_distance=>958.4107420743974, :parkinglots=>[{:id=>878, :name=>"嘟嘟房士林社中站 ", :lat=>25.0894139, :lng=>121.5105122, :price=>20, :color=>"#7fad58"}, {:id=>879, :name=>"百齡橋旁平面停車場", :lat=>25.0884513, :lng=>121.5105922, :price=>20, :color=>"#7fad58"}, {:id=>904, :name=>"百齡橋堤外平面停車場", :lat=>25.0907488, :lng=>121.5114398, :price=>30, :color=>"#7fad58"}, {:id=>788, :name=>"社正路平面停車場", :lat=>25.0881639, :lng=>121.5089245, :price=>30, :color=>"#7fad58"}, {:id=>1799, :name=>"嘟嘟房士林社正站", :lat=>25.0881639, :lng=>121.5089245, :price=>30, :color=>"#7fad58"}, {:id=>1166, :name=>"愛馬屋社子場停車場", :lat=>25.0863268, :lng=>121.5072366, :price=>30, :color=>"#7fad58"}, {:id=>3548, :name=>"台北市立圖書館葫蘆堵分館大樓地下停車場", :lat=>25.0821511, :lng=>121.5107681, :price=>30, :color=>"#7fad58"}, {:id=>935, :name=>"通河西街一段平面停車場", :lat=>25.0837206, :lng=>121.5131125, :price=>30, :color=>"#7fad58"}]}, {:id=>29, :color=>"#faa695", :price=>70, :size=>3, :max_distance=>349.56253609250774, :parkinglots=>[{:id=>1057, :name=>"台灣聯通大世界停車場", :lat=>25.0429409, :lng=>121.5052502, :price=>80, :color=>"#ed7760"}, {:id=>1704, :name=>"台灣聯通大世界場", :lat=>25.0429409, :lng=>121.5052502, :price=>60, :color=>"#ffc000"}, {:id=>4199, :name=>"福慧網中華長沙站", :lat=>25.0405571, :lng=>121.5075123, :price=>80, :color=>"#ed7760"}]}, {:id=>30, :color=>"#f597b1", :price=>90, :size=>4, :max_distance=>123.73404624046157, :parkinglots=>[{:id=>1492, :name=>"長揚停車場館前站", :lat=>25.0455395, :lng=>121.5149972, :price=>80, :color=>"#ed7760"}, {:id=>806, :name=>"館前停車場", :lat=>25.0462183, :lng=>121.5150129, :price=>60, :color=>"#ffc000"}, {:id=>1482, :name=>"新光人壽摩天大樓停車場", :lat=>25.0455255, :lng=>121.515537, :price=>100, :color=>"#df4e76"}, {:id=>1164, :name=>"台北凱撒大飯店停車場", :lat=>25.045979, :lng=>121.5161256, :price=>100, :color=>"#df4e76"}]}, {:id=>31, :color=>"#ffc000", :price=>60, :size=>17, :max_distance=>1027.0712478225214, :parkinglots=>[{:id=>1373, :name=>"中國人壽敦北大樓停車場", :lat=>25.0538634, :lng=>121.5486058, :price=>60, :color=>"#ffc000"}, {:id=>1400, :name=>"TIMES長春路", :lat=>25.0544453, :lng=>121.5483524, :price=>50, :color=>"#ffd863"}, {:id=>2224, :name=>"禾典長庚站", :lat=>25.0541368, :lng=>121.5499324, :price=>60, :color=>"#ffc000"}, {:id=>3525, :name=>"敦北翠苑社區停車場", :lat=>25.0560593, :lng=>121.5502439, :price=>60, :color=>"#ffc000"}, {:id=>1131, :name=>"台塑大樓停車場", :lat=>25.0567616, :lng=>121.5512588, :price=>60, :color=>"#ffc000"}, {:id=>1380, :name=>"宏泰金融大樓計時停車場", :lat=>25.057226, :lng=>121.5473248, :price=>70, :color=>"#faa695"}, {:id=>1405, :name=>"宏泰世界大樓計時停車場", :lat=>25.0568031, :lng=>121.5480817, :price=>70, :color=>"#faa695"}, {:id=>1394, :name=>"宏國大樓停車場", :lat=>25.055113, :lng=>121.5492355, :price=>70, :color=>"#faa695"}, {:id=>2070, :name=>"TIMES慶城街第3", :lat=>25.0548563, :lng=>121.546408, :price=>50, :color=>"#ffd863"}, {:id=>2071, :name=>"TIMES慶城街", :lat=>25.0547732, :lng=>121.5463447, :price=>50, :color=>"#ffd863"}, {:id=>1378, :name=>"通泰商業大樓收費停車場", :lat=>25.0535351, :lng=>121.5462775, :price=>50, :color=>"#ffd863"}, {:id=>1379, :name=>"福里停車場", :lat=>25.0545433, :lng=>121.5452857, :price=>60, :color=>"#ffc000"}, {:id=>1268, :name=>"緯來停車場", :lat=>25.0582765, :lng=>121.5512948, :price=>50, :color=>"#ffd863"}, {:id=>1396, :name=>"應安松山機場", :lat=>25.0626091, :lng=>121.5481827, :price=>60, :color=>"#ffc000"}, {:id=>1383, :name=>"新長越民權東路停車場", :lat=>25.0617067, :lng=>121.549303, :price=>60, :color=>"#ffc000"}, {:id=>2066, :name=>"TIMES民權敦化3", :lat=>25.0604372, :lng=>121.5499009, :price=>60, :color=>"#ffc000"}, {:id=>847, :name=>"應安德璞十九章場", :lat=>25.0589516, :lng=>121.5470437, :price=>60, :color=>"#ffc000"}]}, {:id=>32, :color=>"#7fad58", :price=>30, :size=>12, :max_distance=>943.4435350017454, :parkinglots=>[{:id=>761, :name=>"應安新湖二場", :lat=>25.0636138, :lng=>121.5786001, :price=>20, :color=>"#7fad58"}, {:id=>1345, :name=>"應安新湖一場", :lat=>25.0645799, :lng=>121.5788514, :price=>20, :color=>"#7fad58"}, {:id=>1360, :name=>"金矽谷18-1停車場", :lat=>25.0610875, :lng=>121.5805265, :price=>20, :color=>"#7fad58"}, {:id=>1369, :name=>"北臺灣開發實業有限公司內湖營業所停車場", :lat=>25.0636065, :lng=>121.5811882, :price=>30, :color=>"#7fad58"}, {:id=>2090, :name=>"TIMES行愛新湖", :lat=>25.0636436, :lng=>121.5821093, :price=>20, :color=>"#7fad58"}, {:id=>1368, :name=>"北北角薪傳中心停車場", :lat=>25.0601026, :lng=>121.5769479, :price=>20, :color=>"#7fad58"}, {:id=>1937, :name=>"應安舊宗場", :lat=>25.0593629, :lng=>121.5775236, :price=>20, :color=>"#7fad58"}, {:id=>1009, :name=>"in base", :lat=>25.0613771, :lng=>121.5770503, :price=>30, :color=>"#7fad58"}, {:id=>762, :name=>"台北花卉產銷股份有限公司停車場A館", :lat=>25.0625546, :lng=>121.5740174, :price=>30, :color=>"#7fad58"}, {:id=>763, :name=>"台北花卉產銷股份有限公司停車場B館", :lat=>25.0625546, :lng=>121.5740174, :price=>30, :color=>"#7fad58"}, {:id=>3566, :name=>"台北花卉產銷股份有限公司B館", :lat=>25.0625546, :lng=>121.5740174, :price=>30, :color=>"#7fad58"}, {:id=>1342, :name=>"合發堤頂停車場", :lat=>25.0633436, :lng=>121.5727486, :price=>30, :color=>"#7fad58"}]}, {:id=>33, :color=>"#aede85", :price=>40, :size=>5, :max_distance=>642.8124049175087, :parkinglots=>[{:id=>3683, :name=>"嘟嘟房內湖民權站 ", :lat=>25.067733, :lng=>121.5816817, :price=>40, :color=>"#aede85"}, {:id=>1366, :name=>"博客停車場行愛站", :lat=>25.0659408, :lng=>121.581981, :price=>40, :color=>"#aede85"}, {:id=>1227, :name=>"長揚停車場新湖站", :lat=>25.0638084, :lng=>121.5835804, :price=>40, :color=>"#aede85"}, {:id=>1352, :name=>"TIMES新湖三路", :lat=>25.0654097, :lng=>121.5808175, :price=>50, :color=>"#ffd863"}, {:id=>2005, :name=>"便利停車場中時站", :lat=>25.0693473, :lng=>121.581753, :price=>30, :color=>"#7fad58"}]}, {:id=>34, :color=>"#7fad58", :price=>30, :size=>5, :max_distance=>729.9996963008765, :parkinglots=>[{:id=>30, :name=>"大業立體停車場", :lat=>25.1375991, :lng=>121.5031466, :price=>30, :color=>"#7fad58"}, {:id=>157, :name=>"七星公園地下停車場", :lat=>25.1367405, :lng=>121.5023775, :price=>30, :color=>"#7fad58"}, {:id=>3808, :name=>"台北捷運新北投站轉乘停車場", :lat=>25.1366927, :lng=>121.501619, :price=>20, :color=>"#7fad58"}, {:id=>3809, :name=>"台北捷運北投站轉乘停車場", :lat=>25.1330701, :lng=>121.4978968, :price=>30, :color=>"#7fad58"}, {:id=>880, :name=>"磺港溪廣場停車場", :lat=>25.1329948, :lng=>121.5027227, :price=>40, :color=>"#aede85"}]}, {:id=>35, :color=>"#ffd863", :price=>50, :size=>18, :max_distance=>981.470042820321, :parkinglots=>[{:id=>1768, :name=>"嘟嘟房林森2站", :lat=>25.0508738, :lng=>121.5251124, :price=>40, :color=>"#aede85"}, {:id=>1127, :name=>"TIMES林森八條通", :lat=>25.0506708, :lng=>121.5270835, :price=>40, :color=>"#aede85"}, {:id=>1169, :name=>"安原停車場", :lat=>25.051787, :lng=>121.528971, :price=>40, :color=>"#aede85"}, {:id=>1576, :name=>"蕭邦停車場", :lat=>25.0491676, :lng=>121.5300248, :price=>40, :color=>"#aede85"}, {:id=>79, :name=>"林森公園地下停車場", :lat=>25.0521829, :lng=>121.5264245, :price=>30, :color=>"#7fad58"}, {:id=>1139, :name=>"新長越林森北停車場", :lat=>25.0481721, :lng=>121.5266711, :price=>50, :color=>"#ffd863"}, {:id=>2063, :name=>"TIMES長安東路第4", :lat=>25.0486545, :lng=>121.5267427, :price=>60, :color=>"#ffc000"}, {:id=>3903, :name=>"TIMES林森五条通", :lat=>25.049577, :lng=>121.52554, :price=>50, :color=>"#ffd863"}, {:id=>1602, :name=>"叭叭房長安", :lat=>25.0488796, :lng=>121.5257536, :price=>30, :color=>"#7fad58"}, {:id=>1959, :name=>"應安長安東場", :lat=>25.0480254, :lng=>121.5261552, :price=>40, :color=>"#aede85"}, {:id=>773, :name=>"神旺商務酒店停車場", :lat=>25.0516957, :lng=>121.5272151, :price=>60, :color=>"#ffc000"}, {:id=>2044, :name=>"TIMES中山市場", :lat=>25.0506145, :lng=>121.5208926, :price=>50, :color=>"#ffd863"}, {:id=>1421, :name=>"中山收費停車場", :lat=>25.0514329, :lng=>121.5206081, :price=>60, :color=>"#ffc000"}, {:id=>3513, :name=>"新長越中山北路停車場", :lat=>25.0504294, :lng=>121.5223048, :price=>40, :color=>"#aede85"}, {:id=>1555, :name=>"TIMES中山北路", :lat=>25.0501816, :lng=>121.5226903, :price=>50, :color=>"#ffd863"}, {:id=>3955, :name=>"台灣聯通天津場", :lat=>25.0508602, :lng=>121.5227887, :price=>60, :color=>"#ffc000"}, {:id=>835, :name=>"新長越長安大樓停車場", :lat=>25.0493596, :lng=>121.523676, :price=>60, :color=>"#ffc000"}, {:id=>1769, :name=>"嘟嘟房林森3站", :lat=>25.0493214, :lng=>121.5238397, :price=>40, :color=>"#aede85"}]}, {:id=>36, :color=>"#7fad58", :price=>20, :size=>7, :max_distance=>846.8968713401415, :parkinglots=>[{:id=>944, :name=>"大理地下停車場", :lat=>25.0342438, :lng=>121.4933877, :price=>20, :color=>"#7fad58"}, {:id=>945, :name=>"新糖廍公園地下停車場", :lat=>25.0338007, :lng=>121.4942046, :price=>20, :color=>"#7fad58"}, {:id=>889, :name=>"華江橋下雙層停車場", :lat=>25.0355811, :lng=>121.4915153, :price=>20, :color=>"#7fad58"}, {:id=>740, :name=>"環河停車場", :lat=>25.034303, :lng=>121.490232, :price=>30, :color=>"#7fad58"}, {:id=>76, :name=>"萬板地下停車場", :lat=>25.0280114, :lng=>121.4905866, :price=>30, :color=>"#7fad58"}, {:id=>1793, :name=>"嘟嘟房環南市場站", :lat=>25.0299978, :lng=>121.4894502, :price=>30, :color=>"#7fad58"}, {:id=>1017, :name=>"環南堤外停車場", :lat=>25.0293271, :lng=>121.4882755, :price=>20, :color=>"#7fad58"}]}, {:id=>37, :color=>"#f597b1", :price=>90, :size=>5, :max_distance=>576.0905420486804, :parkinglots=>[{:id=>1140, :name=>"新光三越百貨(股)公司台北南西分公司二館停車場", :lat=>25.0517385, :lng=>121.5204176, :price=>100, :color=>"#df4e76"}, {:id=>1557, :name=>"新光三越百貨(股)公司台北南西分公司停車場", :lat=>25.051906, :lng=>121.5214457, :price=>100, :color=>"#df4e76"}, {:id=>1558, :name=>"晶華酒店附設停車場", :lat=>25.0543639, :lng=>121.5253479, :price=>100, :color=>"#df4e76"}, {:id=>3455, :name=>"全方位開發股份有限公司停車場", :lat=>25.0523783, :lng=>121.5220625, :price=>80, :color=>"#ed7760"}, {:id=>1102, :name=>"中山大樓停車場", :lat=>25.0554172, :lng=>121.5216816, :price=>80, :color=>"#ed7760"}]}, {:id=>38, :color=>"#aede85", :price=>40, :size=>4, :max_distance=>298.86975232098814, :parkinglots=>[{:id=>3580, :name=>"博客停車場牯嶺站", :lat=>25.0292125, :lng=>121.5170915, :price=>40, :color=>"#aede85"}, {:id=>3588, :name=>"中正牯嶺街一停車場", :lat=>25.028965, :lng=>121.5172883, :price=>40, :color=>"#aede85"}, {:id=>3596, :name=>"龍昌大樓機電管理顧問股份有限公司婦幼營業處", :lat=>25.029082, :lng=>121.5192681, :price=>40, :color=>"#aede85"}, {:id=>1958, :name=>"應安牯嶺場", :lat=>25.0269764, :lng=>121.5187374, :price=>20, :color=>"#7fad58"}]}, {:id=>39, :color=>"#7fad58", :price=>30, :size=>6, :max_distance=>726.5940071901998, :parkinglots=>[{:id=>154, :name=>"南港國小地下停車場", :lat=>25.0563989, :lng=>121.6112369, :price=>20, :color=>"#7fad58"}, {:id=>1109, :name=>"南港經貿園區R16平面停車場", :lat=>25.0561521, :lng=>121.6101955, :price=>20, :color=>"#7fad58"}, {:id=>38, :name=>"興中立體停車場", :lat=>25.0560544, :lng=>121.6066837, :price=>20, :color=>"#7fad58"}, {:id=>1190, :name=>"晟晁爵士停車場", :lat=>25.0553664, :lng=>121.6041143, :price=>30, :color=>"#7fad58"}, {:id=>1189, :name=>"大榮貨運停車場", :lat=>25.0577279, :lng=>121.60453, :price=>30, :color=>"#7fad58"}, {:id=>2092, :name=>"TIMES南港路", :lat=>25.054129, :lng=>121.6084358, :price=>40, :color=>"#aede85"}]}, {:id=>40, :color=>"#7fad58", :price=>30, :size=>10, :max_distance=>836.1613501894285, :parkinglots=>[{:id=>135, :name=>"俥亭西康地下停車場", :lat=>25.0848339, :lng=>121.5636123, :price=>20, :color=>"#7fad58"}, {:id=>3684, :name=>"應安西康場", :lat=>25.0857065, :lng=>121.5635693, :price=>20, :color=>"#7fad58"}, {:id=>2003, :name=>"便利停車場中興站", :lat=>25.0834214, :lng=>121.5629861, :price=>20, :color=>"#7fad58"}, {:id=>854, :name=>"大直之星停車場", :lat=>25.0860523, :lng=>121.5655531, :price=>30, :color=>"#7fad58"}, {:id=>836, :name=>"美麗華百樂園地下停車場", :lat=>25.0830298, :lng=>121.5585307, :price=>30, :color=>"#7fad58"}, {:id=>1774, :name=>"嘟嘟房家樂福大直站", :lat=>25.0820541, :lng=>121.5585211, :price=>30, :color=>"#7fad58"}, {:id=>1964, :name=>"應安美麗華場", :lat=>25.0826144, :lng=>121.5598272, :price=>30, :color=>"#7fad58"}, {:id=>946, :name=>"樂群臨時平面停車場", :lat=>25.0826205, :lng=>121.5590798, :price=>20, :color=>"#7fad58"}, {:id=>1328, :name=>"基湖停車場", :lat=>25.0820353, :lng=>121.5629549, :price=>30, :color=>"#7fad58"}, {:id=>1329, :name=>"基湖二停車場", :lat=>25.0822499, :lng=>121.5636569, :price=>50, :color=>"#ffd863"}]}, {:id=>41, :color=>"#7fad58", :price=>30, :size=>9, :max_distance=>752.7715543694592, :parkinglots=>[{:id=>1574, :name=>"晉星金泰停車場", :lat=>25.0807068, :lng=>121.5519066, :price=>20, :color=>"#7fad58"}, {:id=>2057, :name=>"TIMES北安路第3", :lat=>25.080925, :lng=>121.550316, :price=>20, :color=>"#7fad58"}, {:id=>3475, :name=>"台北中山永安停車場", :lat=>25.0801118, :lng=>121.5487427, :price=>30, :color=>"#7fad58"}, {:id=>2065, :name=>"TIMES敬業一路", :lat=>25.0841138, :lng=>121.5530823, :price=>30, :color=>"#7fad58"}, {:id=>1763, :name=>"嘟嘟房大直站", :lat=>25.0840414, :lng=>121.5527964, :price=>30, :color=>"#7fad58"}, {:id=>1648, :name=>"台灣聯通美麗華場", :lat=>25.0826664, :lng=>121.5551563, :price=>30, :color=>"#7fad58"}, {:id=>3802, :name=>"台北捷運劍南路站轉乘停車場", :lat=>25.0845473, :lng=>121.5543896, :price=>20, :color=>"#7fad58"}, {:id=>3844, :name=>"詮營停車大直敬業場", :lat=>25.083971, :lng=>121.554373, :price=>50, :color=>"#ffd863"}, {:id=>1137, :name=>"TIMES明水路", :lat=>25.0824336, :lng=>121.5523864, :price=>40, :color=>"#aede85"}]}, {:id=>42, :color=>"#aede85", :price=>40, :size=>13, :max_distance=>1029.6237523150235, :parkinglots=>[{:id=>1484, :name=>"貴陽街機械式立體停車場", :lat=>25.0394949, :lng=>121.5057808, :price=>30, :color=>"#7fad58"}, {:id=>2080, :name=>"TIMES昆明街", :lat=>25.0393114, :lng=>121.5044067, :price=>40, :color=>"#aede85"}, {:id=>3632, :name=>"俥亭廣州街一停車場", :lat=>25.0360244, :lng=>121.5087764, :price=>40, :color=>"#aede85"}, {:id=>2052, :name=>"TIMES廣州街", :lat=>25.0355051, :lng=>121.5085276, :price=>40, :color=>"#aede85"}, {:id=>839, :name=>"龍昌大樓機電管理顧問股份有限公司和平營業處", :lat=>25.03587, :lng=>121.5071886, :price=>40, :color=>"#aede85"}, {:id=>1993, :name=>"便利停車場長沙二站", :lat=>25.0406502, :lng=>121.5056742, :price=>50, :color=>"#ffd863"}, {:id=>1966, :name=>"應安中華長沙場", :lat=>25.0405879, :lng=>121.5072397, :price=>50, :color=>"#ffd863"}, {:id=>4197, :name=>"福慧網貴陽二站", :lat=>25.0391646, :lng=>121.5081121, :price=>50, :color=>"#ffd863"}, {:id=>4003, :name=>"便利停車場中華站", :lat=>25.042787, :lng=>121.509309, :price=>50, :color=>"#ffd863"}, {:id=>46, :name=>"峨眉立體停車場", :lat=>25.044387, :lng=>121.5056383, :price=>50, :color=>"#ffd863"}, {:id=>3562, :name=>"西門國小停車場", :lat=>25.0431886, :lng=>121.5042238, :price=>50, :color=>"#ffd863"}, {:id=>3544, :name=>"台大醫院北護分院地下停車場", :lat=>25.041598, :lng=>121.5035678, :price=>40, :color=>"#aede85"}, {:id=>1144, :name=>"新長越內江站停車場", :lat=>25.041631, :lng=>121.5031722, :price=>50, :color=>"#ffd863"}]}, {:id=>43, :color=>"#7fad58", :price=>20, :size=>6, :max_distance=>937.2531386772258, :parkinglots=>[{:id=>3438, :name=>"長安東一停車場", :lat=>25.0473551, :lng=>121.5292167, :price=>20, :color=>"#7fad58"}, {:id=>774, :name=>"長安東二停車場", :lat=>25.0473551, :lng=>121.5292167, :price=>20, :color=>"#7fad58"}, {:id=>2059, :name=>"TIMES市民大道", :lat=>25.0473288, :lng=>121.5286284, :price=>30, :color=>"#7fad58"}, {:id=>5, :name=>"市民大道(林金段)", :lat=>25.0467801, :lng=>121.527795, :price=>20, :color=>"#7fad58"}, {:id=>4007, :name=>"長安國小地下停車場", :lat=>25.0505212, :lng=>121.5313376, :price=>30, :color=>"#7fad58"}, {:id=>1, :name=>"市民大道(中林段)", :lat=>25.0478189, :lng=>121.5225247, :price=>20, :color=>"#7fad58"}]}, {:id=>44, :color=>"#df4e76", :price=>100, :size=>5, :max_distance=>790.6958288023095, :parkinglots=>[{:id=>1371, :name=>"元順停車場", :lat=>25.0592004, :lng=>121.5443104, :price=>100, :color=>"#df4e76"}, {:id=>1274, :name=>"台灣世達志不動產顧問股份有限公司民生東路第一停車場", :lat=>25.0576346, :lng=>121.5469338, :price=>100, :color=>"#df4e76"}, {:id=>1406, :name=>"西華大飯店客用停車場", :lat=>25.0578117, :lng=>121.5461284, :price=>120, :color=>"#df4e76"}, {:id=>1407, :name=>"兄弟飯店停車場", :lat=>25.0524289, :lng=>121.5453999, :price=>100, :color=>"#df4e76"}, {:id=>1408, :name=>"王朝大酒店停車場", :lat=>25.0531518, :lng=>121.5484377, :price=>100, :color=>"#df4e76"}]}, {:id=>45, :color=>"#7fad58", :price=>30, :size=>4, :max_distance=>929.58321859565, :parkinglots=>[{:id=>12, :name=>"揚雅立體停車場", :lat=>25.0676974, :lng=>121.5159131, :price=>20, :color=>"#7fad58"}, {:id=>994, :name=>"大同區行政中心停車場", :lat=>25.066061, :lng=>121.5151063, :price=>30, :color=>"#7fad58"}, {:id=>1927, :name=>"應安大龍場", :lat=>25.0691476, :lng=>121.5170768, :price=>30, :color=>"#7fad58"}, {:id=>128, :name=>"大龍國小地下停車場", :lat=>25.0741755, :lng=>121.5173263, :price=>30, :color=>"#7fad58"}]}, {:id=>46, :color=>"#faa695", :price=>70, :size=>14, :max_distance=>860.7045141859503, :parkinglots=>[{:id=>1472, :name=>"停車棧忠孝復興站", :lat=>25.042071, :lng=>121.5429676, :price=>80, :color=>"#ed7760"}, {:id=>1078, :name=>"潤泰創新國際(股)公司中崙分公司地下收費停車場", :lat=>25.044909, :lng=>121.5431898, :price=>80, :color=>"#ed7760"}, {:id=>1533, :name=>"福華大飯店平面停車場", :lat=>25.0371694, :lng=>121.5433202, :price=>80, :color=>"#ed7760"}, {:id=>1177, :name=>"福華大飯店附設停車場", :lat=>25.0372681, :lng=>121.5435936, :price=>80, :color=>"#ed7760"}, {:id=>1160, :name=>"鴻霖停車場", :lat=>25.0386183, :lng=>121.5451541, :price=>80, :color=>"#ed7760"}, {:id=>1920, :name=>"應安168復興SOGO停車場", :lat=>25.0406584, :lng=>121.5433496, :price=>70, :color=>"#faa695"}, {:id=>3978, :name=>"應安復興SOGO場", :lat=>25.0406584, :lng=>121.5433496, :price=>60, :color=>"#ffc000"}, {:id=>1600, :name=>"叭叭房復興1", :lat=>25.0399307, :lng=>121.5430338, :price=>70, :color=>"#faa695"}, {:id=>1534, :name=>"忠興停車場", :lat=>25.0419854, :lng=>121.5444588, :price=>60, :color=>"#ffc000"}, {:id=>809, :name=>"錢櫃忠孝停車場", :lat=>25.0409308, :lng=>121.5442501, :price=>60, :color=>"#ffc000"}, {:id=>2222, :name=>"禾典復興站", :lat=>25.0390112, :lng=>121.5443994, :price=>60, :color=>"#ffc000"}, {:id=>1457, :name=>"順福停車場", :lat=>25.03983, :lng=>121.5444135, :price=>50, :color=>"#ffd863"}, {:id=>3985, :name=>"仁愛本真停車場", :lat=>25.0404301, :lng=>121.5453299, :price=>50, :color=>"#ffd863"}, {:id=>1158, :name=>"喬合停車場", :lat=>25.0431209, :lng=>121.542672, :price=>60, :color=>"#ffc000"}]}, {:id=>47, :color=>"#aede85", :price=>40, :size=>4, :max_distance=>706.7445521149415, :parkinglots=>[{:id=>115, :name=>"臺北國際航空站第2號計時收費停車場", :lat=>25.0623608, :lng=>121.5527273, :price=>40, :color=>"#aede85"}, {:id=>116, :name=>"臺北國際航空站第3號計時收費停車場", :lat=>25.0631213, :lng=>121.5531506, :price=>40, :color=>"#aede85"}, {:id=>114, :name=>"臺北國際航空站第1號計時收費停車場", :lat=>25.0623436, :lng=>121.5516022, :price=>40, :color=>"#aede85"}, {:id=>88, :name=>"民有市場地下停車場", :lat=>25.0607543, :lng=>121.5466388, :price=>30, :color=>"#7fad58"}]}, {:id=>48, :color=>"#7fad58", :price=>30, :size=>10, :max_distance=>942.8652557518551, :parkinglots=>[{:id=>749, :name=>"俥亭瑞安停車場", :lat=>25.0257155, :lng=>121.5389268, :price=>30, :color=>"#7fad58"}, {:id=>1792, :name=>"嘟嘟房瑞安站", :lat=>25.0254904, :lng=>121.5394234, :price=>30, :color=>"#7fad58"}, {:id=>1424, :name=>"仁光瑞安站停車場", :lat=>25.0264256, :lng=>121.5399015, :price=>30, :color=>"#7fad58"}, {:id=>95, :name=>"龍門國中地下停車場", :lat=>25.0239543, :lng=>121.5378825, :price=>30, :color=>"#7fad58"}, {:id=>3407, :name=>"建國南路高架橋下A區", :lat=>25.0279199, :lng=>121.5379499, :price=>20, :color=>"#7fad58"}, {:id=>1525, :name=>"文化大學大夏館停車塔", :lat=>25.0259757, :lng=>121.5379204, :price=>20, :color=>"#7fad58"}, {:id=>3409, :name=>"建國南路高架橋下C區", :lat=>25.0320802, :lng=>121.5380074, :price=>40, :color=>"#aede85"}, {:id=>3410, :name=>"建國南路高架橋下D區", :lat=>25.0324285, :lng=>121.5375551, :price=>40, :color=>"#aede85"}, {:id=>3, :name=>"大安森林公園地下停車場", :lat=>25.032013, :lng=>121.5374066, :price=>20, :color=>"#7fad58"}, {:id=>1468, :name=>"鈞曜大安場", :lat=>25.0308568, :lng=>121.5386198, :price=>30, :color=>"#7fad58"}]}, {:id=>49, :color=>"#7fad58", :price=>30, :size=>5, :max_distance=>809.4112637632402, :parkinglots=>[{:id=>1104, :name=>"振華公園旁平面停車場", :lat=>25.1158314, :lng=>121.5183251, :price=>30, :color=>"#7fad58"}, {:id=>1941, :name=>"應安石牌場", :lat=>25.1165463, :lng=>121.5175238, :price=>30, :color=>"#7fad58"}, {:id=>3463, :name=>"豪庭電機股份有限公司裕民停車場", :lat=>25.115348, :lng=>121.516319, :price=>30, :color=>"#7fad58"}, {:id=>3811, :name=>"台北捷運石牌站轉乘停車場", :lat=>25.1161419, :lng=>121.5146764, :price=>30, :color=>"#7fad58"}, {:id=>1138, :name=>"台北榮民總醫院立體停車場", :lat=>25.1192422, :lng=>121.5219502, :price=>40, :color=>"#aede85"}]}, {:id=>50, :color=>"#aede85", :price=>40, :size=>25, :max_distance=>850.755964506397, :parkinglots=>[{:id=>3448, :name=>"台北中山區中山停車場", :lat=>25.0603305, :lng=>121.5242865, :price=>40, :color=>"#aede85"}, {:id=>1643, :name=>"台灣聯通中山北場", :lat=>25.0590119, :lng=>121.5234723, :price=>40, :color=>"#aede85"}, {:id=>93, :name=>"永盛公園地下停車場", :lat=>25.05933, :lng=>121.5248147, :price=>40, :color=>"#aede85"}, {:id=>3445, :name=>"柏盛股份有限公司停車場", :lat=>25.0593245, :lng=>121.5250728, :price=>30, :color=>"#7fad58"}, {:id=>759, :name=>"林森北路399巷臨時平面停車場", :lat=>25.0597759, :lng=>121.5267284, :price=>40, :color=>"#aede85"}, {:id=>3489, :name=>"台北中山民生停車場", :lat=>25.0575024, :lng=>121.5223757, :price=>50, :color=>"#ffd863"}, {:id=>833, :name=>"民生東路停車場", :lat=>25.058037, :lng=>121.5238029, :price=>50, :color=>"#ffd863"}, {:id=>1037, :name=>"國賓大飯店停車場", :lat=>25.057096, :lng=>121.5235861, :price=>40, :color=>"#aede85"}, {:id=>3926, :name=>"嘟嘟房林森5站", :lat=>25.056261, :lng=>121.5252557, :price=>30, :color=>"#7fad58"}, {:id=>1984, :name=>"便利停車場林森站", :lat=>25.0562588, :lng=>121.5253339, :price=>30, :color=>"#7fad58"}, {:id=>1770, :name=>"嘟嘟房林森站", :lat=>25.0558355, :lng=>121.5250354, :price=>30, :color=>"#7fad58"}, {:id=>3608, :name=>"興林開發有限公司林森站", :lat=>25.0553516, :lng=>121.5254538, :price=>30, :color=>"#7fad58"}, {:id=>1644, :name=>"台灣聯通華泰王子場", :lat=>25.0570501, :lng=>121.5256584, :price=>40, :color=>"#aede85"}, {:id=>1566, :name=>"華泰大飯店停車場", :lat=>25.0570501, :lng=>121.5256584, :price=>40, :color=>"#aede85"}, {:id=>3626, :name=>"欣欣停車場", :lat=>25.0542805, :lng=>121.5273907, :price=>40, :color=>"#aede85"}, {:id=>754, :name=>"俥亭長春一停車場", :lat=>25.0543098, :lng=>121.526637, :price=>30, :color=>"#7fad58"}, {:id=>801, :name=>"中山運動中心旁平面停車場", :lat=>25.0551927, :lng=>121.5216684, :price=>40, :color=>"#aede85"}, {:id=>947, :name=>"中山北路2段42巷臨時平面停車場", :lat=>25.0547229, :lng=>121.5210782, :price=>40, :color=>"#aede85"}, {:id=>123, :name=>"臺北市中山運動中心停車場", :lat=>25.0546721, :lng=>121.5216339, :price=>40, :color=>"#aede85"}, {:id=>988, :name=>"台壽金融總部大樓停車場", :lat=>25.0546721, :lng=>121.5216339, :price=>50, :color=>"#ffd863"}, {:id=>2060, :name=>"TIMES民生東路", :lat=>25.0580287, :lng=>121.5281996, :price=>50, :color=>"#ffd863"}, {:id=>861, :name=>"宏達經營管理顧問有限公司林森停車場", :lat=>25.0607404, :lng=>121.5255896, :price=>50, :color=>"#ffd863"}, {:id=>1778, :name=>"嘟嘟房新興國中", :lat=>25.0607404, :lng=>121.5255896, :price=>30, :color=>"#7fad58"}, {:id=>3769, :name=>"宏達林森北場", :lat=>25.0609146, :lng=>121.5255881, :price=>20, :color=>"#7fad58"}, {:id=>1573, :name=>"埃莫停車場", :lat=>25.0611933, :lng=>121.5255856, :price=>60, :color=>"#ffc000"}]}, {:id=>51, :color=>"#ffd863", :price=>50, :size=>14, :max_distance=>734.5266132547423, :parkinglots=>[{:id=>3590, :name=>"台北市青島社區管理委員會停車場", :lat=>25.0436464, :lng=>121.5240003, :price=>40, :color=>"#aede85"}, {:id=>1494, :name=>"TIMES濟南路二段", :lat=>25.041375, :lng=>121.5270913, :price=>40, :color=>"#aede85"}, {:id=>1490, :name=>"俥亭華山地下停車場", :lat=>25.0450613, :lng=>121.5262853, :price=>30, :color=>"#7fad58"}, {:id=>1662, :name=>"台灣聯通醒吾場", :lat=>25.0427157, :lng=>121.5264825, :price=>30, :color=>"#7fad58"}, {:id=>3578, :name=>"華山國際動漫城停車場", :lat=>25.0444624, :lng=>121.5304117, :price=>40, :color=>"#aede85"}, {:id=>785, :name=>"應安北平東場", :lat=>25.0457886, :lng=>121.5261785, :price=>50, :color=>"#ffd863"}, {:id=>3928, :name=>"嘟嘟房華山藝文中心站", :lat=>25.0455757, :lng=>121.5264634, :price=>60, :color=>"#ffc000"}, {:id=>1491, :name=>"希望廣場停車場", :lat=>25.0460378, :lng=>121.5243499, :price=>50, :color=>"#ffd863"}, {:id=>1498, :name=>"良友八德停車場", :lat=>25.0433162, :lng=>121.5309936, :price=>60, :color=>"#ffc000"}, {:id=>1046, :name=>"禾典光華站", :lat=>25.0435813, :lng=>121.5307905, :price=>60, :color=>"#ffc000"}, {:id=>1950, :name=>"應安台北資訊園區停車場", :lat=>25.0453633, :lng=>121.530989, :price=>60, :color=>"#ffc000"}, {:id=>4088, :name=>"華山1914停車場", :lat=>25.0435577, :lng=>121.5286238, :price=>60, :color=>"#ffc000"}, {:id=>1496, :name=>"新長越金山南路停車場", :lat=>25.0427793, :lng=>121.5295645, :price=>70, :color=>"#faa695"}, {:id=>1480, :name=>"金融中心停車場", :lat=>25.0428778, :lng=>121.5296832, :price=>50, :color=>"#ffd863"}]}, {:id=>52, :color=>"#ffd863", :price=>50, :size=>16, :max_distance=>1127.6578932960942, :parkinglots=>[{:id=>3421, :name=>"建國北路高架橋下IB區", :lat=>25.0649039, :lng=>121.5367262, :price=>30, :color=>"#7fad58"}, {:id=>3422, :name=>"建國北路高架橋下J區", :lat=>25.0659288, :lng=>121.5363304, :price=>40, :color=>"#aede85"}, {:id=>82, :name=>"榮星花園地下停車場", :lat=>25.0643327, :lng=>121.5382277, :price=>40, :color=>"#aede85"}, {:id=>3420, :name=>"建國北路高架橋下IA區", :lat=>25.0630928, :lng=>121.537072, :price=>40, :color=>"#aede85"}, {:id=>1553, :name=>"格子房-行天宮站停車場", :lat=>25.0650578, :lng=>121.5333392, :price=>40, :color=>"#aede85"}, {:id=>92, :name=>"濱江市場地下停車場", :lat=>25.0671758, :lng=>121.5383252, :price=>30, :color=>"#7fad58"}, {:id=>1007, :name=>"志亨停車場", :lat=>25.0632536, :lng=>121.534977, :price=>50, :color=>"#ffd863"}, {:id=>1647, :name=>"台灣聯通行天宮場", :lat=>25.0628785, :lng=>121.5349626, :price=>50, :color=>"#ffd863"}, {:id=>991, :name=>"松江新貴", :lat=>25.0637824, :lng=>121.5349939, :price=>50, :color=>"#ffd863"}, {:id=>2062, :name=>"TIMES行天宮", :lat=>25.0637824, :lng=>121.5349939, :price=>50, :color=>"#ffd863"}, {:id=>3545, :name=>"中山區行政中心停車場", :lat=>25.0641251, :lng=>121.5333282, :price=>50, :color=>"#ffd863"}, {:id=>1766, :name=>"嘟嘟房民權2站", :lat=>25.0622998, :lng=>121.5381351, :price=>50, :color=>"#ffd863"}, {:id=>3572, :name=>"長揚停車場松江站", :lat=>25.0591513, :lng=>121.5348222, :price=>50, :color=>"#ffd863"}, {:id=>1650, :name=>"台灣聯通大松江場", :lat=>25.0592958, :lng=>121.5332767, :price=>50, :color=>"#ffd863"}, {:id=>3502, :name=>"喜華士停車場", :lat=>25.0627044, :lng=>121.5282766, :price=>50, :color=>"#ffd863"}, {:id=>1564, :name=>"TIMES農安街", :lat=>25.0648981, :lng=>121.5310416, :price=>50, :color=>"#ffd863"}]}, {:id=>53, :color=>"#7fad58", :price=>30, :size=>7, :max_distance=>679.1027654903975, :parkinglots=>[{:id=>3551, :name=>"好庭車停車場(福國路站)", :lat=>25.1031313, :lng=>121.5237733, :price=>40, :color=>"#aede85"}, {:id=>3577, :name=>"士林電機仰德大樓停車場", :lat=>25.1046908, :lng=>121.5248643, :price=>40, :color=>"#aede85"}, {:id=>3815, :name=>"台北捷運芝山站(北)轉乘停車場", :lat=>25.1045741, :lng=>121.5224645, :price=>30, :color=>"#7fad58"}, {:id=>1155, :name=>"TIMES 天母 SOGO", :lat=>25.1044415, :lng=>121.5239706, :price=>30, :color=>"#7fad58"}, {:id=>3816, :name=>"台北捷運芝山站(南)轉乘停車場", :lat=>25.1013171, :lng=>121.5231143, :price=>30, :color=>"#7fad58"}, {:id=>985, :name=>"長揚停車場福國站", :lat=>25.1014888, :lng=>121.5225266, :price=>50, :color=>"#ffd863"}, {:id=>14, :name=>"文昌國小地下停車場", :lat=>25.0992189, :lng=>121.5218689, :price=>20, :color=>"#7fad58"}]}, {:id=>54, :color=>"#ed7760", :price=>80, :size=>10, :max_distance=>1157.987827601357, :parkinglots=>[{:id=>1145, :name=>"富邦金融大樓停車場", :lat=>25.0384769, :lng=>121.5517734, :price=>80, :color=>"#ed7760"}, {:id=>1442, :name=>"嘟嘟房敦南誠品站", :lat=>25.0389422, :lng=>121.5495613, :price=>80, :color=>"#ed7760"}, {:id=>1510, :name=>"建成大廈停車場", :lat=>25.0408769, :lng=>121.5504298, :price=>80, :color=>"#ed7760"}, {:id=>2074, :name=>"TIMES忠孝東路", :lat=>25.0430363, :lng=>121.5514922, :price=>80, :color=>"#ed7760"}, {:id=>1925, :name=>"應安忠孝場", :lat=>25.0434671, :lng=>121.5529554, :price=>80, :color=>"#ed7760"}, {:id=>4001, :name=>"富邦人壽大樓地下停車場", :lat=>25.0450653, :lng=>121.5482374, :price=>80, :color=>"#ed7760"}, {:id=>3514, :name=>"國立國父紀念館光復南路第一停車場", :lat=>25.0385954, :lng=>121.5572445, :price=>80, :color=>"#ed7760"}, {:id=>1527, :name=>"光復平面停車場", :lat=>25.0385954, :lng=>121.5572445, :price=>80, :color=>"#ed7760"}, {:id=>998, :name=>"台新國際商業銀行股份有限公司停車場", :lat=>25.0374927, :lng=>121.5502936, :price=>100, :color=>"#df4e76"}, {:id=>1502, :name=>"明曜百貨停車場", :lat=>25.0410195, :lng=>121.5518258, :price=>100, :color=>"#df4e76"}]}, {:id=>55, :color=>"#7fad58", :price=>30, :size=>5, :max_distance=>1001.172140581621, :parkinglots=>[{:id=>2055, :name=>"TIMES承德第3", :lat=>25.0615784, :lng=>121.517463, :price=>30, :color=>"#7fad58"}, {:id=>1929, :name=>"應安承德場", :lat=>25.0616013, :lng=>121.5165687, :price=>30, :color=>"#7fad58"}, {:id=>1762, :name=>"嘟嘟房寧夏站", :lat=>25.0616347, :lng=>121.5149018, :price=>30, :color=>"#7fad58"}, {:id=>3467, :name=>"全國停車場重慶站", :lat=>25.0593609, :lng=>121.5145263, :price=>40, :color=>"#aede85"}, {:id=>738, :name=>"台北市永樂市場地下1樓停車場", :lat=>25.0554835, :lng=>121.5101472, :price=>30, :color=>"#7fad58"}]}, {:id=>56, :color=>"#aede85", :price=>40, :size=>7, :max_distance=>820.4013336264912, :parkinglots=>[{:id=>1255, :name=>"南港園區二期停車場", :lat=>25.0590676, :lng=>121.6116296, :price=>40, :color=>"#aede85"}, {:id=>2020, :name=>"便利停車場南港站", :lat=>25.056226, :lng=>121.6130297, :price=>40, :color=>"#aede85"}, {:id=>136, :name=>"世貿公園地下停車場", :lat=>25.0577378, :lng=>121.6143788, :price=>20, :color=>"#7fad58"}, {:id=>2021, :name=>"便利停車場南港二站", :lat=>25.0578637, :lng=>121.614128, :price=>40, :color=>"#aede85"}, {:id=>1185, :name=>"南港軟體工業園區第三期地下停車場", :lat=>25.0569761, :lng=>121.6147407, :price=>60, :color=>"#ffc000"}, {:id=>856, :name=>"俥亭南港中信停車場", :lat=>25.058135, :lng=>121.6163491, :price=>60, :color=>"#ffc000"}, {:id=>1258, :name=>"台北南港展覽館停車場", :lat=>25.0566384, :lng=>121.6193201, :price=>30, :color=>"#7fad58"}]}, {:id=>57, :color=>"#ffc000", :price=>60, :size=>18, :max_distance=>1025.5490528873836, :parkinglots=>[{:id=>1413, :name=>"聯合安豐長春站", :lat=>25.0498657, :lng=>121.5390698, :price=>60, :color=>"#ffc000"}, {:id=>1570, :name=>"龍江八德站停車場", :lat=>25.0477754, :lng=>121.5407975, :price=>60, :color=>"#ffc000"}, {:id=>1086, :name=>"禾典南京站", :lat=>25.0515215, :lng=>121.5427686, :price=>60, :color=>"#ffc000"}, {:id=>1015, :name=>"安婷停車場俠隱場", :lat=>25.0523639, :lng=>121.542055, :price=>60, :color=>"#ffc000"}, {:id=>1698, :name=>"台灣聯通復興北場", :lat=>25.0511992, :lng=>121.5446641, :price=>50, :color=>"#ffd863"}, {:id=>812, :name=>"揚昇收費停車場", :lat=>25.0502149, :lng=>121.5445078, :price=>50, :color=>"#ffd863"}, {:id=>1389, :name=>"便利停車場八德二站", :lat=>25.0487559, :lng=>121.5461865, :price=>50, :color=>"#ffd863"}, {:id=>1695, :name=>"台灣聯通中興場", :lat=>25.0476728, :lng=>121.5443208, :price=>50, :color=>"#ffd863"}, {:id=>2064, :name=>"TIMES復興南路", :lat=>25.0469325, :lng=>121.5437869, :price=>60, :color=>"#ffc000"}, {:id=>3599, :name=>"芝麻停車場", :lat=>25.0487086, :lng=>121.5446962, :price=>60, :color=>"#ffc000"}, {:id=>1133, :name=>"復安吉停車場", :lat=>25.0487086, :lng=>121.5446962, :price=>60, :color=>"#ffc000"}, {:id=>1147, :name=>"博客停車場敦北站", :lat=>25.0496722, :lng=>121.5461933, :price=>70, :color=>"#faa695"}, {:id=>1002, :name=>"詮營停車台北小巨蛋場", :lat=>25.0500476, :lng=>121.5492484, :price=>60, :color=>"#ffc000"}, {:id=>2069, :name=>"TIMES敦南市民", :lat=>25.0456661, :lng=>121.5459938, :price=>70, :color=>"#faa695"}, {:id=>2072, :name=>"TIMES潤泰敦化微風", :lat=>25.0456661, :lng=>121.5459938, :price=>70, :color=>"#faa695"}, {:id=>1020, :name=>"微風廣場地下停車場", :lat=>25.045228, :lng=>121.545248, :price=>60, :color=>"#ffc000"}, {:id=>1269, :name=>"台灣聯通南三停車場", :lat=>25.052365, :lng=>121.547293, :price=>80, :color=>"#ed7760"}, {:id=>3961, :name=>"台灣聯通南三場", :lat=>25.0524069, :lng=>121.5473224, :price=>50, :color=>"#ffd863"}]}, {:id=>58, :color=>"#aede85", :price=>40, :size=>24, :max_distance=>1113.0836544875117, :parkinglots=>[{:id=>105, :name=>"台灣聯通市府轉運站場", :lat=>25.0402175, :lng=>121.5661169, :price=>40, :color=>"#aede85"}, {:id=>3937, :name=>"嘟嘟房阪急百貨站", :lat=>25.0403164, :lng=>121.5661178, :price=>60, :color=>"#ffc000"}, {:id=>1663, :name=>"台灣聯通誠品信義場", :lat=>25.0393614, :lng=>121.5660861, :price=>60, :color=>"#ffc000"}, {:id=>40, :name=>"威秀A16停車場", :lat=>25.0353882, :lng=>121.5663603, :price=>50, :color=>"#ffd863"}, {:id=>1300, :name=>"ATT 4 FUN停車場", :lat=>25.03574, :lng=>121.566363, :price=>50, :color=>"#ffd863"}, {:id=>63, :name=>"台北世界貿易中心展覽三館停車場", :lat=>25.0351384, :lng=>121.5654445, :price=>50, :color=>"#ffd863"}, {:id=>43, :name=>"威秀A17停車場", :lat=>25.0349014, :lng=>121.5675287, :price=>50, :color=>"#ffd863"}, {:id=>1090, :name=>"neo19停車場", :lat=>25.0351261, :lng=>121.5675362, :price=>50, :color=>"#ffd863"}, {:id=>995, :name=>"全豐盛信義105停車場", :lat=>25.0353886, :lng=>121.5684319, :price=>50, :color=>"#ffd863"}, {:id=>1218, :name=>"遠東百貨A13停車場", :lat=>25.0368993, :lng=>121.5675823, :price=>50, :color=>"#ffd863"}, {:id=>36, :name=>"忠信地下停車場", :lat=>25.040201, :lng=>121.5683832, :price=>40, :color=>"#aede85"}, {:id=>814, :name=>"台北信義區忠孝停車場", :lat=>25.0410772, :lng=>121.5701098, :price=>40, :color=>"#aede85"}, {:id=>1085, :name=>"中油大樓停車場", :lat=>25.0402415, :lng=>121.5698414, :price=>30, :color=>"#7fad58"}, {:id=>1043, :name=>"松高路臨時平面停車場", :lat=>25.0390584, :lng=>121.5702581, :price=>30, :color=>"#7fad58"}, {:id=>112, :name=>"松山工農地下停車場", :lat=>25.0390066, :lng=>121.572592, :price=>40, :color=>"#aede85"}, {:id=>1096, :name=>"一號交易廣場計時停車場", :lat=>25.0369511, :lng=>121.5697514, :price=>40, :color=>"#aede85"}, {:id=>1097, :name=>"群益金融大樓計時停車場", :lat=>25.0365946, :lng=>121.569394, :price=>40, :color=>"#aede85"}, {:id=>756, :name=>"國泰金融大樓停車場", :lat=>25.0385726, :lng=>121.5697891, :price=>50, :color=>"#ffd863"}, {:id=>1053, :name=>"普羅旺斯實業股份有限公司停車場", :lat=>25.0412078, :lng=>121.5725319, :price=>50, :color=>"#ffd863"}, {:id=>1051, :name=>"忠孝東路停車場", :lat=>25.0412078, :lng=>121.5725319, :price=>40, :color=>"#aede85"}, {:id=>1022, :name=>"基隆路停車場", :lat=>25.0425788, :lng=>121.5660776, :price=>40, :color=>"#aede85"}, {:id=>1795, :name=>"嘟嘟房市府站", :lat=>25.0422113, :lng=>121.5658553, :price=>40, :color=>"#aede85"}, {:id=>41, :name=>"興雅國中地下停車場", :lat=>25.0347083, :lng=>121.5729046, :price=>30, :color=>"#7fad58"}, {:id=>1282, :name=>"應安松勇場", :lat=>25.03421, :lng=>121.5716917, :price=>40, :color=>"#aede85"}]}, {:id=>59, :color=>"#faa695", :price=>70, :size=>5, :max_distance=>456.98068610299936, :parkinglots=>[{:id=>60, :name=>"臺北世界貿易中心展覽大樓停車場", :lat=>25.0330382, :lng=>121.5621385, :price=>70, :color=>"#faa695"}, {:id=>3837, :name=>"詮營停車信義101場", :lat=>25.0326891, :lng=>121.5648369, :price=>60, :color=>"#ffc000"}, {:id=>48, :name=>"台北世界貿易中心國際貿易大樓地下停車場", :lat=>25.0342225, :lng=>121.560757, :price=>100, :color=>"#df4e76"}, {:id=>1794, :name=>"嘟嘟房世貿站", :lat=>25.0342225, :lng=>121.560757, :price=>50, :color=>"#ffd863"}, {:id=>42, :name=>"台北國際會議中心停車場", :lat=>25.03427, :lng=>121.5606501, :price=>50, :color=>"#ffd863"}]}, {:id=>60, :color=>"#aede85", :price=>40, :size=>13, :max_distance=>864.3331500236402, :parkinglots=>[{:id=>3523, :name=>"328停車場", :lat=>25.0946049, :lng=>121.5189255, :price=>40, :color=>"#aede85"}, {:id=>2087, :name=>"TIMES基河路第2", :lat=>25.0951261, :lng=>121.5184359, :price=>40, :color=>"#aede85"}, {:id=>3532, :name=>"福志停車場", :lat=>25.0937103, :lng=>121.518975, :price=>40, :color=>"#aede85"}, {:id=>2088, :name=>"TIMES基河路第3", :lat=>25.0936552, :lng=>121.5188966, :price=>40, :color=>"#aede85"}, {:id=>1586, :name=>"叭叭房新光醫院A1", :lat=>25.0962573, :lng=>121.5204014, :price=>50, :color=>"#ffd863"}, {:id=>1129, :name=>"台北市立天文科學教育館地下及戶外平面停車場", :lat=>25.0962317, :lng=>121.519275, :price=>30, :color=>"#7fad58"}, {:id=>824, :name=>"士林華榮停車場", :lat=>25.0967513, :lng=>121.5227527, :price=>30, :color=>"#7fad58"}, {:id=>1676, :name=>"台灣聯通新光場", :lat=>25.090861, :lng=>121.52072, :price=>30, :color=>"#7fad58"}, {:id=>1801, :name=>"嘟嘟房士林基河站", :lat=>25.0907966, :lng=>121.5206123, :price=>40, :color=>"#aede85"}, {:id=>1589, :name=>"叭叭房聖賢大樓", :lat=>25.0907322, :lng=>121.5205045, :price=>30, :color=>"#7fad58"}, {:id=>3625, :name=>"臺北市士林運動中心停車場", :lat=>25.0897691, :lng=>121.5213346, :price=>30, :color=>"#7fad58"}, {:id=>3813, :name=>"台北捷運士林站(西)轉乘停車場", :lat=>25.0936395, :lng=>121.5259166, :price=>50, :color=>"#ffd863"}, {:id=>3814, :name=>"台北捷運士林站(南)轉乘停車場", :lat=>25.0926967, :lng=>121.5265892, :price=>50, :color=>"#ffd863"}]}, {:id=>61, :color=>"#ed7760", :price=>80, :size=>10, :max_distance=>951.2475884640313, :parkinglots=>[{:id=>3488, :name=>"台北大安敦南停車場", :lat=>25.0270239, :lng=>121.5489789, :price=>70, :color=>"#faa695"}, {:id=>3630, :name=>"岳洋敦南停車場", :lat=>25.0269789, :lng=>121.5489789, :price=>80, :color=>"#ed7760"}, {:id=>34, :name=>"遠企中心地下停車場", :lat=>25.0257987, :lng=>121.5500144, :price=>100, :color=>"#df4e76"}, {:id=>1034, :name=>"美格停車場通化站", :lat=>25.0285018, :lng=>121.5537344, :price=>80, :color=>"#ed7760"}, {:id=>3927, :name=>"嘟嘟房通化夜市1站", :lat=>25.0293029, :lng=>121.5539539, :price=>80, :color=>"#ed7760"}, {:id=>3620, :name=>"臨江停車場", :lat=>25.0305607, :lng=>121.5532451, :price=>80, :color=>"#ed7760"}, {:id=>3459, :name=>"宏遠大樓停車場", :lat=>25.0325696, :lng=>121.5530141, :price=>80, :color=>"#ed7760"}, {:id=>874, :name=>"敦南大樓停車場", :lat=>25.0293492, :lng=>121.5499261, :price=>80, :color=>"#ed7760"}, {:id=>1176, :name=>"愛馬屋世貿場", :lat=>25.0306912, :lng=>121.557485, :price=>80, :color=>"#ed7760"}, {:id=>1530, :name=>"長伸停車場", :lat=>25.0325199, :lng=>121.5557624, :price=>70, :color=>"#faa695"}]}, {:id=>62, :color=>"#aede85", :price=>40, :size=>20, :max_distance=>1259.0606547517345, :parkinglots=>[{:id=>1481, :name=>"台大醫院停車場", :lat=>25.0445514, :lng=>121.5191109, :price=>50, :color=>"#ffd863"}, {:id=>956, :name=>"中山南路2巷臨時平面停車場", :lat=>25.0449836, :lng=>121.519217, :price=>40, :color=>"#aede85"}, {:id=>741, :name=>"台北車站東區地下停車場", :lat=>25.0473983, :lng=>121.5201681, :price=>50, :color=>"#ffd863"}, {:id=>3440, :name=>"台北中正區永昌停車場", :lat=>25.0431257, :lng=>121.5197476, :price=>60, :color=>"#ffc000"}, {:id=>1499, :name=>"台大校友聯誼社停車場", :lat=>25.0431056, :lng=>121.5198342, :price=>60, :color=>"#ffc000"}, {:id=>3601, :name=>"台大會議中心停車場", :lat=>25.0409798, :lng=>121.5207685, :price=>40, :color=>"#aede85"}, {:id=>3922, :name=>"台灣聯通長安西場", :lat=>25.0509952, :lng=>121.5166093, :price=>40, :color=>"#aede85"}, {:id=>2223, :name=>"禾典太源站", :lat=>25.0499691, :lng=>121.5166593, :price=>50, :color=>"#ffd863"}, {:id=>3439, :name=>"廣德利停車場", :lat=>25.050078, :lng=>121.5151005, :price=>40, :color=>"#aede85"}, {:id=>2046, :name=>"TIMES台北地下街", :lat=>25.0488484, :lng=>121.5150901, :price=>40, :color=>"#aede85"}, {:id=>3639, :name=>"台北車站西區地下停車場", :lat=>25.0474968, :lng=>121.5153233, :price=>40, :color=>"#aede85"}, {:id=>3425, :name=>"俥亭台北站前(誠品K區)停車場", :lat=>25.0469568, :lng=>121.5178858, :price=>40, :color=>"#aede85"}, {:id=>2, :name=>"市民大道(公中段) ", :lat=>25.0481633, :lng=>121.519125, :price=>30, :color=>"#7fad58"}, {:id=>37, :name=>"建成國中地下停車場", :lat=>25.0503307, :lng=>121.5195074, :price=>30, :color=>"#7fad58"}, {:id=>919, :name=>"華陰街臨時平面停車場", :lat=>25.0490986, :lng=>121.5204317, :price=>40, :color=>"#aede85"}, {:id=>3904, :name=>"TIMES站前華陰", :lat=>25.0491193, :lng=>121.5203425, :price=>40, :color=>"#aede85"}, {:id=>3478, :name=>"重慶南路停車場", :lat=>25.0447376, :lng=>121.5132249, :price=>50, :color=>"#ffd863"}, {:id=>1660, :name=>"台灣聯通重慶場", :lat=>25.0446455, :lng=>121.5141296, :price=>50, :color=>"#ffd863"}, {:id=>1949, :name=>"應安中華北門場", :lat=>25.0464944, :lng=>121.5098529, :price=>50, :color=>"#ffd863"}, {:id=>47, :name=>"中山堂地下停車場", :lat=>25.0440982, :lng=>121.5106615, :price=>40, :color=>"#aede85"}]}, {:id=>63, :color=>"#aede85", :price=>40, :size=>35, :max_distance=>1296.7259124170803, :parkinglots=>[{:id=>3418, :name=>"建國北路高架橋下G區", :lat=>25.0596558, :lng=>121.5370278, :price=>30, :color=>"#7fad58"}, {:id=>3419, :name=>"建國北路高架橋下H區", :lat=>25.0602533, :lng=>121.5372051, :price=>40, :color=>"#aede85"}, {:id=>3416, :name=>"建國北路高架橋下E區", :lat=>25.0569588, :lng=>121.5367876, :price=>30, :color=>"#7fad58"}, {:id=>3417, :name=>"建國北路高架橋下F區", :lat=>25.0569538, :lng=>121.5368868, :price=>30, :color=>"#7fad58"}, {:id=>1985, :name=>"便利停車場民生站", :lat=>25.0577815, :lng=>121.538908, :price=>40, :color=>"#aede85"}, {:id=>1106, :name=>"TIMES民生合江", :lat=>25.0576611, :lng=>121.539183, :price=>50, :color=>"#ffd863"}, {:id=>837, :name=>"和逸民生停車場", :lat=>25.0575963, :lng=>121.5366769, :price=>60, :color=>"#ffc000"}, {:id=>3520, :name=>"長寧大廈地下B1停車場", :lat=>25.0542789, :lng=>121.5420956, :price=>40, :color=>"#aede85"}, {:id=>1965, :name=>"應安長春場", :lat=>25.0546167, :lng=>121.5418064, :price=>40, :color=>"#aede85"}, {:id=>894, :name=>"龍江路口平面停車場", :lat=>25.0541985, :lng=>121.5417999, :price=>30, :color=>"#7fad58"}, {:id=>799, :name=>"南京復興停車場", :lat=>25.053337, :lng=>121.5430907, :price=>30, :color=>"#7fad58"}, {:id=>1554, :name=>"國泰世華銀行大樓地下停車場", :lat=>25.0512848, :lng=>121.541208, :price=>40, :color=>"#aede85"}, {:id=>3518, :name=>"晟晁新安停車場", :lat=>25.0514936, :lng=>121.5404469, :price=>30, :color=>"#7fad58"}, {:id=>1552, :name=>"應安龍江場", :lat=>25.0541966, :lng=>121.5405061, :price=>50, :color=>"#ffd863"}, {:id=>1571, :name=>"益彩國際股份有限公司-長春停車場", :lat=>25.0536244, :lng=>121.5390421, :price=>30, :color=>"#7fad58"}, {:id=>1983, :name=>"便利停車場建國站", :lat=>25.0536374, :lng=>121.5375499, :price=>30, :color=>"#7fad58"}, {:id=>1987, :name=>"長春路停車場", :lat=>25.054761, :lng=>121.5362642, :price=>30, :color=>"#7fad58"}, {:id=>2061, :name=>"TIMES伊通街", :lat=>25.0526862, :lng=>121.535931, :price=>40, :color=>"#aede85"}, {:id=>1636, :name=>"台灣聯通南京場", :lat=>25.0521005, :lng=>121.5354101, :price=>40, :color=>"#aede85"}, {:id=>3415, :name=>"建國北路高架橋下D區", :lat=>25.0533079, :lng=>121.5365959, :price=>40, :color=>"#aede85"}, {:id=>1565, :name=>"嘟嘟房首都飯店站", :lat=>25.052826, :lng=>121.5370369, :price=>40, :color=>"#aede85"}, {:id=>3414, :name=>"建國北路高架橋下C區", :lat=>25.0537983, :lng=>121.5370649, :price=>40, :color=>"#aede85"}, {:id=>1772, :name=>"嘟嘟房建國北站", :lat=>25.0530415, :lng=>121.5382856, :price=>40, :color=>"#aede85"}, {:id=>3413, :name=>"建國北路高架橋下B區", :lat=>25.0498661, :lng=>121.5365266, :price=>30, :color=>"#7fad58"}, {:id=>1986, :name=>"便利停車場建國三站", :lat=>25.0498661, :lng=>121.5365266, :price=>30, :color=>"#7fad58"}, {:id=>3412, :name=>"建國北路高架橋下A區", :lat=>25.0495418, :lng=>121.5369825, :price=>30, :color=>"#7fad58"}, {:id=>1089, :name=>"洛碁南京停車場", :lat=>25.051655, :lng=>121.5370113, :price=>30, :color=>"#7fad58"}, {:id=>918, :name=>"應安長春立體停車場", :lat=>25.0556297, :lng=>121.5324114, :price=>30, :color=>"#7fad58"}, {:id=>1771, :name=>"嘟嘟房松江2站", :lat=>25.0560358, :lng=>121.5324533, :price=>40, :color=>"#aede85"}, {:id=>3517, :name=>"長春金融大樓停車場", :lat=>25.0551321, :lng=>121.5315385, :price=>30, :color=>"#7fad58"}, {:id=>3509, :name=>"科技島管理顧問股份有限公司安婷停車場", :lat=>25.0560543, :lng=>121.530572, :price=>50, :color=>"#ffd863"}, {:id=>1124, :name=>"TIMES松江路", :lat=>25.0565452, :lng=>121.5308239, :price=>40, :color=>"#aede85"}, {:id=>3537, :name=>"安婷停車場京王站", :lat=>25.0548344, :lng=>121.5322647, :price=>50, :color=>"#ffd863"}, {:id=>3902, :name=>"TIMES四平街停車場", :lat=>25.0536596, :lng=>121.5321519, :price=>50, :color=>"#ffd863"}, {:id=>3457, :name=>"長揚停車場松江二站", :lat=>25.0506248, :lng=>121.5335988, :price=>50, :color=>"#ffd863"}]}, {:id=>64, :color=>"#ffd863", :price=>50, :size=>40, :max_distance=>1327.532722983902, :parkinglots=>[{:id=>1601, :name=>"叭叭房八德一", :lat=>25.0474803, :lng=>121.5537673, :price=>60, :color=>"#ffc000"}, {:id=>1411, :name=>"復源新城甲基地停車場", :lat=>25.0471702, :lng=>121.5563705, :price=>50, :color=>"#ffd863"}, {:id=>8, :name=>"北寧路地下停車場", :lat=>25.0492575, :lng=>121.552642, :price=>40, :color=>"#aede85"}, {:id=>129, :name=>"臺北田徑場站停車場", :lat=>25.0489609, :lng=>121.5526309, :price=>40, :color=>"#aede85"}, {:id=>1272, :name=>"應安北寧場", :lat=>25.0484195, :lng=>121.5535577, :price=>40, :color=>"#aede85"}, {:id=>1035, :name=>"育達商職停車場", :lat=>25.0504768, :lng=>121.5540118, :price=>50, :color=>"#ffd863"}, {:id=>3959, :name=>"台灣聯通新高場", :lat=>25.0509921, :lng=>121.5565861, :price=>40, :color=>"#aede85"}, {:id=>1151, :name=>"聯通新高停車場", :lat=>25.0509886, :lng=>121.5566952, :price=>60, :color=>"#ffc000"}, {:id=>1375, :name=>"日日停車場", :lat=>25.0509737, :lng=>121.5571615, :price=>40, :color=>"#aede85"}, {:id=>1430, :name=>"大崴停車場", :lat=>25.0437668, :lng=>121.5556135, :price=>40, :color=>"#aede85"}, {:id=>789, :name=>"延吉廢鐵道停車場", :lat=>25.0435898, :lng=>121.5551384, :price=>40, :color=>"#aede85"}, {:id=>844, :name=>"帝國延吉停車場", :lat=>25.0438981, :lng=>121.5546752, :price=>30, :color=>"#7fad58"}, {:id=>1434, :name=>"大崴停車場(地下室)", :lat=>25.0440222, :lng=>121.5547793, :price=>40, :color=>"#aede85"}, {:id=>1372, :name=>"新長越市民大道站停車場", :lat=>25.044667, :lng=>121.5547486, :price=>50, :color=>"#ffd863"}, {:id=>2067, :name=>"TIMES光復延吉", :lat=>25.0457946, :lng=>121.554414, :price=>40, :color=>"#aede85"}, {:id=>1161, :name=>"博客停車場延吉站", :lat=>25.045778, :lng=>121.554282, :price=>30, :color=>"#7fad58"}, {:id=>1471, :name=>"華視大樓地下停車場", :lat=>25.0430337, :lng=>121.5570731, :price=>40, :color=>"#aede85"}, {:id=>1924, :name=>"應安華視場", :lat=>25.0430337, :lng=>121.5570731, :price=>30, :color=>"#7fad58"}, {:id=>1473, :name=>"應安華視二場", :lat=>25.043567, :lng=>121.557016, :price=>50, :color=>"#ffd863"}, {:id=>87, :name=>"僑安地下停車場", :lat=>25.0407643, :lng=>121.5565708, :price=>40, :color=>"#aede85"}, {:id=>1401, :name=>"台北市松山運動中心停車場", :lat=>25.0481916, :lng=>121.5505048, :price=>30, :color=>"#7fad58"}, {:id=>2068, :name=>"TIMES松山運動中心", :lat=>25.0481921, :lng=>121.5505929, :price=>30, :color=>"#7fad58"}, {:id=>18, :name=>"市民大道(敦延段)", :lat=>25.0447645, :lng=>121.5507868, :price=>30, :color=>"#7fad58"}, {:id=>1395, :name=>"詮營停車台安醫院場", :lat=>25.0475328, :lng=>121.5486752, :price=>50, :color=>"#ffd863"}, {:id=>1404, :name=>"便利停車場萬國站", :lat=>25.047871, :lng=>121.5486852, :price=>40, :color=>"#aede85"}, {:id=>1054, :name=>"鼎晟停車場", :lat=>25.0439954, :lng=>121.5500752, :price=>40, :color=>"#aede85"}, {:id=>1989, :name=>"便利停車場富敦站", :lat=>25.0443228, :lng=>121.5496866, :price=>50, :color=>"#ffd863"}, {:id=>1547, :name=>"復旦停車場", :lat=>25.0441452, :lng=>121.5491931, :price=>60, :color=>"#ffc000"}, {:id=>2217, :name=>"禾典敦南站", :lat=>25.0441452, :lng=>121.5491931, :price=>60, :color=>"#ffc000"}, {:id=>17, :name=>"市民大道(復敦段)", :lat=>25.044946, :lng=>121.547397, :price=>50, :color=>"#ffd863"}, {:id=>1463, :name=>"銀座停車場", :lat=>25.0461736, :lng=>121.5496618, :price=>60, :color=>"#ffc000"}, {:id=>1685, :name=>"台灣聯通敦化場", :lat=>25.0444313, :lng=>121.5516509, :price=>60, :color=>"#ffc000"}, {:id=>1789, :name=>"嘟嘟房敦化站", :lat=>25.0442448, :lng=>121.5519629, :price=>60, :color=>"#ffc000"}, {:id=>19, :name=>"市民大道(延吉段)", :lat=>25.0443759, :lng=>121.5521648, :price=>50, :color=>"#ffd863"}, {:id=>1014, :name=>"羅馬洗車場", :lat=>25.041949, :lng=>121.5507566, :price=>50, :color=>"#ffd863"}, {:id=>1522, :name=>"大統領停車場", :lat=>25.041995, :lng=>121.550844, :price=>60, :color=>"#ffc000"}, {:id=>990, :name=>"201停車場", :lat=>25.042119, :lng=>121.5511348, :price=>50, :color=>"#ffd863"}, {:id=>1006, :name=>"台灣聯通統領停車場", :lat=>25.042132, :lng=>121.550461, :price=>60, :color=>"#ffc000"}, {:id=>869, :name=>"九如大樓停車場", :lat=>25.0421429, :lng=>121.5499403, :price=>50, :color=>"#ffd863"}, {:id=>3621, :name=>"上通停車場", :lat=>25.0411728, :lng=>121.5496365, :price=>60, :color=>"#ffc000"}]}, {:id=>65, :color=>"#aede85", :price=>40, :size=>3, :max_distance=>299.6544385175785, :parkinglots=>[{:id=>153, :name=>"玉成國小地下停車場", :lat=>25.0534957, :lng=>121.5949267, :price=>30, :color=>"#7fad58"}, {:id=>1931, :name=>"應安昆陽二場", :lat=>25.0509997, :lng=>121.5938052, :price=>20, :color=>"#7fad58"}, {:id=>1191, :name=>"莒錩昆陽停車場", :lat=>25.0524045, :lng=>121.5931412, :price=>60, :color=>"#ffc000"}]}, {:id=>66, :color=>"#7fad58", :price=>30, :size=>32, :max_distance=>1266.0118157780532, :parkinglots=>[{:id=>4132, :name=>"福慧網瑞光加盟站", :lat=>25.0779253, :lng=>121.5715508, :price=>30, :color=>"#7fad58"}, {:id=>1670, :name=>"台灣聯通瑞二場", :lat=>25.0780689, :lng=>121.5712259, :price=>50, :color=>"#ffd863"}, {:id=>1230, :name=>"麗山街口停車場", :lat=>25.0810718, :lng=>121.5721305, :price=>50, :color=>"#ffd863"}, {:id=>2001, :name=>"便利停車場創世紀", :lat=>25.080955, :lng=>121.5687984, :price=>30, :color=>"#7fad58"}, {:id=>2015, :name=>"便利停車場西湖站", :lat=>25.0818039, :lng=>121.568348, :price=>30, :color=>"#7fad58"}, {:id=>2006, :name=>"便利停車場內湖二", :lat=>25.0818744, :lng=>121.5696327, :price=>30, :color=>"#7fad58"}, {:id=>1364, :name=>"內湖停車場", :lat=>25.0810086, :lng=>121.5706019, :price=>30, :color=>"#7fad58"}, {:id=>1356, :name=>"嘟嘟房內湖瑞光站", :lat=>25.0806312, :lng=>121.5671827, :price=>30, :color=>"#7fad58"}, {:id=>2004, :name=>"便利停車場元吉站", :lat=>25.0805636, :lng=>121.5673566, :price=>30, :color=>"#7fad58"}, {:id=>1343, :name=>"西湖市場暨捷運站地下停車場", :lat=>25.0829868, :lng=>121.5664328, :price=>30, :color=>"#7fad58"}, {:id=>3936, :name=>"嘟嘟房內湖堤頂站", :lat=>25.0786555, :lng=>121.568118, :price=>30, :color=>"#7fad58"}, {:id=>1820, :name=>"嘟嘟房內湖堤頂3站", :lat=>25.0773761, :lng=>121.5692979, :price=>30, :color=>"#7fad58"}, {:id=>1346, :name=>"耶魯大樓停車場", :lat=>25.0798442, :lng=>121.5715906, :price=>30, :color=>"#7fad58"}, {:id=>2000, :name=>"便利停車場內湖momo站", :lat=>25.0799619, :lng=>121.5712933, :price=>30, :color=>"#7fad58"}, {:id=>1320, :name=>"洲一停車場", :lat=>25.0796282, :lng=>121.5721367, :price=>30, :color=>"#7fad58"}, {:id=>1308, :name=>"自由廣場停車場", :lat=>25.0787461, :lng=>121.5733832, :price=>30, :color=>"#7fad58"}, {:id=>1041, :name=>"萬國科技大樓停車場", :lat=>25.0805937, :lng=>121.5697021, :price=>40, :color=>"#aede85"}, {:id=>1340, :name=>"洲子站停車場", :lat=>25.0814332, :lng=>121.567077, :price=>20, :color=>"#7fad58"}, {:id=>1341, :name=>"立成西湖站停車場", :lat=>25.0814263, :lng=>121.5664929, :price=>20, :color=>"#7fad58"}, {:id=>86, :name=>"洲子立體停車場", :lat=>25.0797374, :lng=>121.5692538, :price=>20, :color=>"#7fad58"}, {:id=>767, :name=>"吳建和停車場", :lat=>25.0794895, :lng=>121.5660007, :price=>40, :color=>"#aede85"}, {:id=>2002, :name=>"便利停車場工研站", :lat=>25.0798649, :lng=>121.5650363, :price=>40, :color=>"#aede85"}, {:id=>3460, :name=>"長揚停車場瑞光站", :lat=>25.0793373, :lng=>121.5672645, :price=>40, :color=>"#aede85"}, {:id=>1316, :name=>"長揚停車場內湖長揚站", :lat=>25.0793373, :lng=>121.5672645, :price=>40, :color=>"#aede85"}, {:id=>2091, :name=>"TIMES瑞光路", :lat=>25.0805116, :lng=>121.565782, :price=>50, :color=>"#ffd863"}, {:id=>1327, :name=>"堤頂停車場", :lat=>25.0791023, :lng=>121.5644978, :price=>30, :color=>"#7fad58"}, {:id=>1595, :name=>"叭叭房內湖科技", :lat=>25.0793125, :lng=>121.5645697, :price=>30, :color=>"#7fad58"}, {:id=>1819, :name=>"嘟嘟房內湖堤頂2站", :lat=>25.0793136, :lng=>121.565337, :price=>30, :color=>"#7fad58"}, {:id=>775, :name=>"TIMES基湖路2", :lat=>25.0778949, :lng=>121.5644609, :price=>20, :color=>"#7fad58"}, {:id=>68, :name=>"濱江國中地下停車場", :lat=>25.0796571, :lng=>121.5618262, :price=>20, :color=>"#7fad58"}, {:id=>125, :name=>"西湖公園地下停車場", :lat=>25.084352, :lng=>121.5702504, :price=>20, :color=>"#7fad58"}, {:id=>900, :name=>"環山平面停車場", :lat=>25.085889, :lng=>121.5723469, :price=>20, :color=>"#7fad58"}]}, {:id=>67, :color=>"#df4e76", :price=>100, :size=>9, :max_distance=>965.3937857165903, :parkinglots=>[{:id=>1280, :name=>"昇榮信義停車場", :lat=>25.033401, :lng=>121.5683873, :price=>100, :color=>"#df4e76"}, {:id=>849, :name=>"信義傑仕堡停車場", :lat=>25.0318839, :lng=>121.5693189, :price=>100, :color=>"#df4e76"}, {:id=>32, :name=>"台北101停車場", :lat=>25.03304, :lng=>121.5635769, :price=>100, :color=>"#df4e76"}, {:id=>1291, :name=>"新光信義金融停車場", :lat=>25.0385365, :lng=>121.5683644, :price=>100, :color=>"#df4e76"}, {:id=>1304, :name=>"微風松高地下停車場", :lat=>25.038345, :lng=>121.5676189, :price=>100, :color=>"#df4e76"}, {:id=>1289, :name=>"新光三越百貨公司信義店A9館停車場", :lat=>25.0365089, :lng=>121.5675742, :price=>100, :color=>"#df4e76"}, {:id=>1303, :name=>"台灣聯通松高停車場", :lat=>25.039314, :lng=>121.564362, :price=>100, :color=>"#df4e76"}, {:id=>1162, :name=>"新光三越百貨公司信義店A4館停車場", :lat=>25.0395007, :lng=>121.5660911, :price=>100, :color=>"#df4e76"}, {:id=>107, :name=>"BELLAVITA寶麗廣場停車場", :lat=>25.0398726, :lng=>121.5683769, :price=>120, :color=>"#df4e76"}]}, {:id=>68, :color=>"#faa695", :price=>70, :size=>6, :max_distance=>813.6793347806237, :parkinglots=>[{:id=>826, :name=>"士林一品停車場", :lat=>25.0875764, :lng=>121.5230452, :price=>70, :color=>"#faa695"}, {:id=>778, :name=>"士林市場地下停車場", :lat=>25.0876457, :lng=>121.5240707, :price=>60, :color=>"#ffc000"}, {:id=>155, :name=>"承德公園地下停車場", :lat=>25.0900229, :lng=>121.5225716, :price=>50, :color=>"#ffd863"}, {:id=>1810, :name=>"嘟嘟房新士林夜市站", :lat=>25.0901703, :lng=>121.5224527, :price=>80, :color=>"#ed7760"}, {:id=>1800, :name=>"嘟嘟房士林國小站", :lat=>25.0947607, :lng=>121.5245804, :price=>80, :color=>"#ed7760"}, {:id=>992, :name=>"臺北市士林區行政中心地下停車場", :lat=>25.0930452, :lng=>121.520304, :price=>80, :color=>"#ed7760"}]}, {:id=>69, :color=>"#ffc000", :price=>60, :size=>3, :max_distance=>754.6824782367344, :parkinglots=>[{:id=>1488, :name=>"台北市公有南門市場停車場", :lat=>25.0323231, :lng=>121.518521, :price=>50, :color=>"#ffd863"}, {:id=>2047, :name=>"TIMES石園社區", :lat=>25.0365883, :lng=>121.5222759, :price=>50, :color=>"#ffd863"}, {:id=>1171, :name=>"仰德大樓停車場", :lat=>25.0329814, :lng=>121.5159305, :price=>70, :color=>"#faa695"}]}, {:id=>70, :color=>"#ffd863", :price=>50, :size=>14, :max_distance=>930.572416771721, :parkinglots=>[{:id=>921, :name=>"四維路成功市場臨時攤棚", :lat=>25.0270974, :lng=>121.5485067, :price=>40, :color=>"#aede85"}, {:id=>842, :name=>"禾典大安站", :lat=>25.0279686, :lng=>121.5469039, :price=>40, :color=>"#aede85"}, {:id=>1070, :name=>"大安教會停車場", :lat=>25.0264537, :lng=>121.5468132, :price=>50, :color=>"#ffd863"}, {:id=>1785, :name=>"嘟嘟房四維站", :lat=>25.0260874, :lng=>121.5467856, :price=>40, :color=>"#aede85"}, {:id=>1540, :name=>"嘟嘟房科技大樓站", :lat=>25.0265274, :lng=>121.5442903, :price=>50, :color=>"#ffd863"}, {:id=>1460, :name=>"帝國綠舞停車場", :lat=>25.0229245, :lng=>121.546926, :price=>40, :color=>"#aede85"}, {:id=>1469, :name=>"國立臺灣師範大學臥龍街停車場", :lat=>25.0228969, :lng=>121.5472919, :price=>40, :color=>"#aede85"}, {:id=>1454, :name=>"TIMES臥龍街", :lat=>25.0211454, :lng=>121.5479763, :price=>40, :color=>"#aede85"}, {:id=>1450, :name=>"樂業停車場", :lat=>25.0239045, :lng=>121.5501947, :price=>50, :color=>"#ffd863"}, {:id=>1923, :name=>"應安樂業場", :lat=>25.0232811, :lng=>121.5498912, :price=>50, :color=>"#ffd863"}, {:id=>1436, :name=>"TIMES樂業街", :lat=>25.0235655, :lng=>121.5510913, :price=>60, :color=>"#ffc000"}, {:id=>1179, :name=>"科技站停車場", :lat=>25.0242678, :lng=>121.542869, :price=>60, :color=>"#ffc000"}, {:id=>2219, :name=>"禾典科技站", :lat=>25.0242678, :lng=>121.542869, :price=>40, :color=>"#aede85"}, {:id=>961, :name=>"嘉興公園地下停車場", :lat=>25.0217092, :lng=>121.5516625, :price=>30, :color=>"#7fad58"}]}, {:id=>71, :color=>"#7fad58", :price=>30, :size=>16, :max_distance=>1374.3939247621672, :parkinglots=>[{:id=>966, :name=>"吳興街220巷(一)平面停車場", :lat=>25.0267925, :lng=>121.5619646, :price=>30, :color=>"#7fad58"}, {:id=>1281, :name=>"臺北醫學大學附設醫院停車場", :lat=>25.0269143, :lng=>121.562416, :price=>40, :color=>"#aede85"}, {:id=>968, :name=>"吳興街220巷平面停車場", :lat=>25.025955, :lng=>121.5602616, :price=>30, :color=>"#7fad58"}, {:id=>3586, :name=>"景勤區民活動中心附設停車場", :lat=>25.0289719, :lng=>121.5609167, :price=>40, :color=>"#aede85"}, {:id=>1283, :name=>"三興市場大樓地下停車場", :lat=>25.0289719, :lng=>121.5609167, :price=>60, :color=>"#ffc000"}, {:id=>65, :name=>"府前廣場地下停車場", :lat=>25.0363717, :lng=>121.5619945, :price=>30, :color=>"#7fad58"}, {:id=>66, :name=>"松壽廣場地下停車場", :lat=>25.03704, :lng=>121.5662963, :price=>30, :color=>"#7fad58"}, {:id=>31, :name=>"信義廣場地下停車場", :lat=>25.0339956, :lng=>121.5664452, :price=>30, :color=>"#7fad58"}, {:id=>1219, :name=>"信義區行政中心停車場", :lat=>25.0329349, :lng=>121.5671851, :price=>30, :color=>"#7fad58"}, {:id=>1998, :name=>"便利停車場信義二站", :lat=>25.0325615, :lng=>121.565329, :price=>30, :color=>"#7fad58"}, {:id=>4134, :name=>"福慧網信義加盟站", :lat=>25.0319893, :lng=>121.5650122, :price=>40, :color=>"#aede85"}, {:id=>67, :name=>"臺北市災害應變中心地下停車場", :lat=>25.0285768, :lng=>121.56589, :price=>30, :color=>"#7fad58"}, {:id=>1944, :name=>"應安松智場", :lat=>25.0289159, :lng=>121.5652995, :price=>30, :color=>"#7fad58"}, {:id=>96, :name=>"三張里地下停車場", :lat=>25.0304659, :lng=>121.5670338, :price=>30, :color=>"#7fad58"}, {:id=>151, :name=>"信義國小地下停車場", :lat=>25.0320401, :lng=>121.5624208, :price=>30, :color=>"#7fad58"}, {:id=>1293, :name=>"TIMES松勤街", :lat=>25.0320328, :lng=>121.5626688, :price=>40, :color=>"#aede85"}]}, {:id=>72, :color=>"#7fad58", :price=>30, :size=>11, :max_distance=>1118.8760927598623, :parkinglots=>[{:id=>906, :name=>"東和平面停車場", :lat=>25.1200881, :lng=>121.5331812, :price=>30, :color=>"#7fad58"}, {:id=>3533, :name=>"新長越天玉街停車場", :lat=>25.1191277, :lng=>121.5297835, :price=>30, :color=>"#7fad58"}, {:id=>876, :name=>"天母公園平面停車場", :lat=>25.1251883, :lng=>121.5307651, :price=>30, :color=>"#7fad58"}, {:id=>1803, :name=>"嘟嘟房天母公園站", :lat=>25.1252966, :lng=>121.5308258, :price=>30, :color=>"#7fad58"}, {:id=>2085, :name=>"TIMES天玉街", :lat=>25.1232187, :lng=>121.5307805, :price=>30, :color=>"#7fad58"}, {:id=>2082, :name=>"TIMES中山北路七段第1", :lat=>25.1252123, :lng=>121.5335641, :price=>30, :color=>"#7fad58"}, {:id=>104, :name=>"中華民國農民團體幹部聯合訓練協會停車場", :lat=>25.1221379, :lng=>121.5318496, :price=>50, :color=>"#ffd863"}, {:id=>1805, :name=>"嘟嘟房天母頂好站", :lat=>25.1233473, :lng=>121.5330006, :price=>40, :color=>"#aede85"}, {:id=>3753, :name=>"台北市立大學天母校區地下停車場", :lat=>25.1164436, :lng=>121.536015, :price=>30, :color=>"#7fad58"}, {:id=>772, :name=>"臺北市立體育學院停車場", :lat=>25.116443, :lng=>121.5361069, :price=>30, :color=>"#7fad58"}, {:id=>770, :name=>"台北市立大學天母校區體育館戶外平面停車場", :lat=>25.1164475, :lng=>121.5354721, :price=>40, :color=>"#aede85"}]}, {:id=>73, :color=>"#f597b1", :price=>90, :size=>3, :max_distance=>523.7543069150217, :parkinglots=>[{:id=>872, :name=>"大葉天母停車場", :lat=>25.1124707, :lng=>121.5319769, :price=>80, :color=>"#ed7760"}, {:id=>1802, :name=>"嘟嘟房大葉高島屋站", :lat=>25.1124862, :lng=>121.5320894, :price=>80, :color=>"#ed7760"}, {:id=>3555, :name=>"新光三越百貨天母分公司二館停車場", :lat=>25.1169015, :lng=>121.533742, :price=>100, :color=>"#df4e76"}]}], :size=>74}
